COD_INE	ID_REL	COD_GEO	COD_PROV	PROVINCIA	NOMBRE_ACTUAL	POBLACION_MUNI	SUPERFICIE	PERIMETRO	COD_INE_CAPITAL	CAPITAL	POBLACION_CAPITAL	HOJA_MTN25_ETRS89	LONGITUD_ETRS89	LATITUD_ETRS89	ORIGENCOOR	ALTITUD	ORIGENALTITUD
01001000000	1010014	01010	01	Araba/Álava	Alegría-Dulantzi	2876	1994.5872	35069	01001000101	Alegría-Dulantzi	2767	0113-3	-2.51243731	42.83981158	Mapa	568	MDT5
01002000000	1010029	01020	01	Araba/Álava	Amurrio	10350	9635.289	65134	01002000201	Amurrio	9263	0086-4	-3.00007326	43.05427776	Mapa	219	MDT5
01003000000	1010035	01030	01	Araba/Álava	Aramaio	1467	7325.84	41775	01003000601	Ibarra	799	0087-4	-2.56540037	43.05119653	Mapa	333	MDT5
01004000000	1010040	01040	01	Araba/Álava	Artziniega	1821	2728.73	22886	01004000101	Artziniega	1695	0086-1	-3.12791718	43.12084358	Mapa	210	MDT5
01006000000	1010066	01060	01	Araba/Álava	Armiñón	227	1294.4326	24606	01006000101	Armiñón	106	0137-4	-2.87183475	42.72326199	Mapa	467	MDT5
01008000000	1010088	01080	01	Araba/Álava	Arratzua-Ubarrundia	980	5755.98	67101	01008000501	Durana	341	0112-4	-2.63878816	42.89116171	Mapa	528	MDT5
01009000000	1010091	01090	01	Araba/Álava	Asparrena	1614	6533.64	53712	01009000401	Araia	1234	0113-4	-2.31670754	42.88968768	Mapa	602	MDT5
01010000000	1010105	01100	01	Araba/Álava	Ayala/Aiara	2974	14074.15	64072	01010002001	Arespalditza/Respaldiza	429	0086-3	-3.04306746	43.07768283	Mapa	306	MDT5
01011000000	1010112	01110	01	Araba/Álava	Baños de Ebro/Mañueta	291	945.9752	18610	01011000101	Baños de Ebro/Mañueta	291	0170-4	-2.67863583	42.52925602	Mapa	421	MDT5
01013000000	1010133	01130	01	Araba/Álava	Barrundia	883	9742.34	57432	01013001401	Ozaeta	196	0113-3	-2.49407452	42.91537538	Mapa	575	MDT5
01014000000	1010148	01140	01	Araba/Álava	Berantevilla	453	3573.0031	38711	01014000101	Berantevilla	305	0137-4	-2.85971414	42.68227191	Mapa	471	MDT5
01016000000	1010164	01160	01	Araba/Álava	Bernedo	494	13044.2902	85973	01016000301	Bernedo	163	0171-1	-2.49825439	42.62676989	Mapa	710	MDT5
01017000000	1010170	01170	01	Araba/Álava	Campezo/Kanpezu	1040	8536.0875	53461	01017000501	Santa Cruz de Campezo/Santikurutze Kanpezu	775	0139-4	-2.35207693	42.66971209	Mapa	578	MDT5
01018000000	1010186	01180	01	Araba/Álava	Zigoitia	1747	10206.9376	48596	01018000901	Gopegi	263	0112-1	-2.73033002	42.96210609	Mapa	585	MDT5
01019000000	1010199	01190	01	Araba/Álava	Kripan	180	1251.599	15980	01019000101	Kripan	180	0171-1	-2.51621636	42.59082439	Mapa	691	MDT5
01020000000	1010203	01200	01	Araba/Álava	Kuartango	376	8403.4771	44173	01020002001	Zuhatzu Kuartango	151	0111-4	-2.88438243	42.87006411	Mapa	594	MDT5
01021000000	1010210	01210	01	Araba/Álava	Elburgo/Burgelu	599	3209.3031	58514	01021000401	Elburgo/Burgelu	165	0112-4	-2.545933	42.850282	Investigación	540	Investigación
01022000000	1010225	01220	01	Araba/Álava	Elciego	1005	1632.3129	21825	01022000101	Elciego	1005	0170-4	-2.61723872	42.51420738	Mapa	451	MDT5
01023000000	1010231	01230	01	Araba/Álava	Elvillar/Bilar	333	1750.2228	21190	01023000101	Elvillar/Bilar	333	0170-4	-2.54441267	42.56842577	Mapa	581	MDT5
01027000000	1010278	01250	01	Araba/Álava	Iruraiz-Gauna	517	4712.8628	81139	01027000101	Azilu	27	0139-1	-2.475996232	42.83131017	Investigación	627	Investigación
01028000000	1010284	01260	01	Araba/Álava	Labastida/Bastida	1452	3816.9756	35481	01028000103	Labastida/Bastida	1264	0170-1	-2.793199	42.590217	Investigación	555	Investigación
01030000000	1010301	01280	01	Araba/Álava	Lagrán	157	4562.02	34064	01030000101	Lagran	95	0170-2	-2.58423377	42.62621464	Mapa	751	MDT5
01031000000	1010318	01290	01	Araba/Álava	Laguardia	1494	8097.11	84431	01031000202	Laguardia/Biasteri	1337	0170-4	-2.58411693	42.55236655	Mapa	630	MDT5
01032000000	1010323	01300	01	Araba/Álava	Lanciego/Lantziego	691	2425.3	26407	01032000201	Lanciego/Lantziego	616	0171-3	-2.51278162	42.5624416	Mapa	542	MDT5
01033000000	1010339	01310	01	Araba/Álava	Lapuebla de Labarca	865	598.7767	12420	01033000101	Lapuebla de Labarca	865	0203-2	-2.57209001	42.49441468	Mapa	431	MDT5
01034000000	1010344	01320	01	Araba/Álava	Leza	203	992.2543	14579	01034000101	Leza	169	0170-4	-2.63459428	42.56469687	Mapa	569	MDT5
01036000000	1010360	01340	01	Araba/Álava	Laudio/Llodio	18102	3756	27576	01036000101	Laudio/Llodio	18102	0086-2	-2.96256495	43.1425188	Mapa	123	MDT5
01037000000	1010376	01350	01	Araba/Álava	Arraia-Maeztu	726	12310.7942	59163	01037001001	Maeztu/Maestu	328	0139-3	-2.444299	42.738527	Investigación	649	Investigación
01039000000	1010395	01360	01	Araba/Álava	Moreda de Álava/Moreda Araba	221	867.1106	12022	01039000101	Moreda de Álava/Moreda Araba	221	0171-3	-2.40841718	42.52479167	Mapa	461	MDT5
01041000000	1010416	01380	01	Araba/Álava	Navaridas	200	891.6398	11775	01041000101	Navaridas	200	0170-4	-2.62479544	42.5450594	Mapa	535	MDT5
01042000000	1010421	01390	01	Araba/Álava	Okondo	1188	2979.23	34703	01042000001	Eskauriatza	0	0061-4	-3.019026823	43.1615513	Mapa	135	Mapa
01043000000	1010437	01400	01	Araba/Álava	Oyón-Oion	3386	4517.7474	42025	01043000301	Oion	3190	0171-3	-2.436788	42.506067	Investigación	435	Investigación
01044000000	1010442	01410	01	Araba/Álava	Peñacerrada-Urizaharra	261	6217.54	42084	01044000601	Peñacerrada/Urizaharra	116	0170-1	-2.71402821	42.64417512	Mapa	752	MDT5
01046000000	1010468	01430	01	Araba/Álava	Erriberagoitia/Ribera Alta	785	11978.2131	83147	01046001901	Pobes	139	0137-2	-2.91080642	42.80074682	Mapa	545	MDT5
01047000000	1010474	01440	01	Araba/Álava	Erriberabeitia	1350	2536.0438	30506	01047000501	Ribabellosa	1094	0137-4	-2.91704002	42.71339792	Mapa	483	MDT5
01049000000	1010493	01460	01	Araba/Álava	Añana	156	2192.3285	21681	01049000201	Salinas de Añana/Gesaltza Añana	144	0137-2	-2.98601634	42.8012318	Mapa	574	MDT5
01051000000	1010513	01470	01	Araba/Álava	Agurain/Salvatierra	5062	3776.9884	37786	01051000601	Agurain/Salvatierra	4937	0113-3	-2.389753	42.850452	Investigación	608	Investigación
01052000000	1010528	01480	01	Araba/Álava	Samaniego	316	1063.761	16532	01052000101	Samaniego	316	0170-4	-2.67904862	42.56735197	Mapa	571	MDT5
01053000000	1010534	01490	01	Araba/Álava	San Millán/Donemiliaga	715	8540.58	107242	01053001101	Ordoñana/Erdoñana	42	0113-3	-2.37748902	42.87382571	Mapa	600	MDT5
01054000000	1010549	01500	01	Araba/Álava	Urkabustaiz	1371	6084.8426	37107	01054000701	Izarra	1028	0111-2	-2.90661046	42.95304046	Mapa	633	MDT5
01055000000	1010552	01510	01	Araba/Álava	Valdegovía/Gaubea	996	23827.336	104431	01055003001	Villanueva de Valdegovía	121	0111-3	-3.09884417	42.84756896	Mapa	552	MDT5
01056000000	1010565	01520	01	Araba/Álava	Harana/Valle de Arana	221	3912.1857	37971	01056000101	Alda	28	0139-2	-2.33104687	42.75289194	Mapa	812	MDT5
01057000000	1010571	01530	01	Araba/Álava	Villabuena de Álava/Eskuernaga	296	847.9289	14014	01057000101	Villabuena de Álava/Eskuernaga	296	0170-4	-2.66452938	42.54857804	Mapa	483	MDT5
01058000000	1010587	01540	01	Araba/Álava	Legutio	1885	4585.3184	37334	01058000601	Legutio	1374	0112-2	-2.64255929	42.9798744	Mapa	570	MDT5
01059000000	1010590	01001	01	Araba/Álava	Vitoria-Gasteiz	251774	27665.96	111847	01059006301	Vitoria-Gasteiz	246597	0112-4	-2.67275685	42.85058789	Mapa	539	MDT5
01060000000	1010604	01550	01	Araba/Álava	Yécora/Iekora	268	1880.2483	20919	01060000101	Yécora/Iekora	268	0171-3	-2.4700849	42.56923117	Mapa	694	MDT5
01061000000	1010611	01560	01	Araba/Álava	Zalduondo	183	1187.86	21423	01061000101	Zalduondo	181	0113-4	-2.34650825	42.88580971	Mapa	612	MDT5
01062000000	1010626	01570	01	Araba/Álava	Zambrana	410	3950.6249	43865	01062000401	Zambrana	322	0169-2	-2.87806502	42.66112968	Mapa	458	MDT5
01063000000	1010632	01580	01	Araba/Álava	Zuia	2302	12248.6671	49689	01063001101	Murgia	1094	0112-1	-2.81862854	42.95597763	Mapa	617	MDT5
01901000000	1019015	01245	01	Araba/Álava	Iruña Oka/Iruña de Oca	3411	5325.0072	35113	01901000201	Nanclares de la Oca/Langraiz Oka	2413	0138-1	-2.8147543	42.81819126	Mapa	502	MDT5
01902000000	1019020	01305	01	Araba/Álava	Lantarón	875	6748.9609	63204	01902000401	Comunión/Komunioi	92	0137-4	-2.96649719	42.71657557	Mapa	482	MDT5
02001000000	1020019	02010	02	Albacete	Abengibre	790	3076.9225	25257	02001000101	Abengibre	790	0743-4	-1.54384487	39.2100078	Mapa	634	MDT5
02002000000	1020024	02020	02	Albacete	Alatoz	519	6385.5135	37232	02002000101	Alatoz	509	0767-1	-1.36097604	39.09494843	Mapa	858	MDT5
02003000000	1020030	02001	02	Albacete	Albacete	173329	112698.96	250011	02003000201	Albacete	166533	0790-2	-1.85574745	38.99588053	Mapa	681	MDT5
02004000000	1020045	02030	02	Albacete	Albatana	692	3050.21	22496	02004000101	Albatana	682	0843-4	-1.52275248	38.5708754	Mapa	582	MDT5
02005000000	1020058	02040	02	Albacete	Alborea	658	7186.76	36330	02005000101	Alborea	652	0744-1	-1.39670449	39.27835442	Mapa	706	MDT5
02006000000	1020061	02050	02	Albacete	Alcadozo	654	9958.7	53730	02006000101	Alcadozo	594	0842-2	-1.9802275	38.6489758	Mapa	925	MDT5
02007000000	1020077	02060	02	Albacete	Alcalá del Júcar	1170	14682.4446	51494	02007000101	Alcalá del Júcar	652	0744-3	-1.42932697	39.1932018	Mapa	547	MDT5
02008000000	1020083	02070	02	Albacete	Alcaraz	1351	37053.3125	289056	02008000101	Alcaraz	1129	0841-1	-2.49034957	38.66425104	Mapa	953	MDT5
02009000000	1020096	02080	02	Albacete	Almansa	24419	53181.5	93234	02009000101	Almansa	23905	0793-3	-1.09414681	38.86968811	Mapa	687	MDT5
02010000000	1020100	02090	02	Albacete	Alpera	2265	17847.2745	56652	02010000101	Alpera	2247	0792-2	-1.23080245	38.95969094	Mapa	852	MDT5
02011000000	1020117	02100	02	Albacete	Ayna	616	14658.96	65701	02011000101	Ayna	437	0842-3	-2.07053831	38.55217746	Mapa	696	MDT5
02012000000	1020122	02110	02	Albacete	Balazote	2334	6515.3733	31749	02012000101	Balazote	2314	0790-3	-2.15096732	38.88396156	Mapa	771	MDT5
02013000000	1020138	02120	02	Albacete	Balsa de Ves	158	7634.9273	39452	02013000101	Balsa de Ves	115	0744-2	-1.19650012	39.26461253	Mapa	751	MDT5
02014000000	1020143	02130	02	Albacete	El Ballestero	405	13869.3693	49399	02014000101	El Ballestero	397	0789-3	-2.45508633	38.84252196	Mapa	1027	MDT5
02015000000	1020156	02140	02	Albacete	Barrax	1833	18983.33	52801	02015000101	Barrax	1816	0764-4	-2.20045637	39.0456106	Mapa	733	MDT5
02016000000	1020169	02150	02	Albacete	Bienservida	603	9073.437	56309	02016000101	Bienservida	595	0840-4	-2.61184243	38.51602097	Mapa	898	MDT5
02017000000	1020175	02160	02	Albacete	Bogarra	842	16601.4619	77106	02017000201	Bogarra	623	0841-4	-2.21253636	38.58025427	Mapa	844	MDT5
02018000000	1020181	02170	02	Albacete	Bonete	1049	12505.526	55720	02018000101	Bonete	1043	0792-4	-1.34830324	38.86950589	Mapa	886	MDT5
02019000000	1020194	02180	02	Albacete	El Bonillo	2779	50266	154331	02019000101	El Bonillo	2746	0788-2	-2.54023691	38.95012362	Mapa	1062	MDT5
02020000000	1020208	02190	02	Albacete	Carcelén	501	7536.3731	38287	02020000101	Carcelén	461	0767-2	-1.30876708	39.10231176	Mapa	911	MDT5
02021000000	1020215	02200	02	Albacete	Casas de Juan Núñez	1307	8898.2779	42030	02021000101	Casas de Juan Núñez	1297	0766-2	-1.55799035	39.10160749	Mapa	704	MDT5
02022000000	1020220	02210	02	Albacete	Casas de Lázaro	363	11231.6773	70760	02022000201	Casas de Lázaro	260	0815-2	-2.23922378	38.7705758	Mapa	942	MDT5
02023000000	1020236	02220	02	Albacete	Casas de Ves	572	12509.4606	67921	02023000101	Casas de Ves	572	0744-2	-1.33454992	39.25946122	Mapa	707	MDT5
02024000000	1020241	02230	02	Albacete	Casas-Ibáñez	4538	10325.14	56102	02024000101	Casas-Ibáñez	4527	0744-1	-1.47129143	39.28701686	Mapa	708	MDT5
02025000000	1020254	02240	02	Albacete	Caudete	9963	14163.49	49586	02025000101	Caudete	9453	0819-4	-0.9886912	38.70573009	Mapa	554	MDT5
02026000000	1020267	02250	02	Albacete	Cenizate	1181	6326.0153	35204	02026000101	Cenizate	1181	0743-2	-1.66113349	39.30332101	Mapa	706	MDT5
02027000000	1020273	02260	02	Albacete	Corral-Rubio	324	9475.5686	42347	02027000101	Corral-Rubio	294	0792-3	-1.4608525	38.83500072	Mapa	870	MDT5
02028000000	1020289	02270	02	Albacete	Cotillas	123	1446.9288	15802	02028000201	Cotillas	96	0866-1	-2.50574545	38.43135915	Mapa	947	MDT5
02029000000	1020292	02280	02	Albacete	Chinchilla de Monte-Aragón	4206	67927.33	163946	02029000201	Chinchilla de Monte-Aragón	3184	0791-1	-1.72602643	38.9210968	Mapa	907	MDT5
02030000000	1020306	02290	02	Albacete	Elche de la Sierra	3585	23949.4125	84011	02030000101	Elche de la Sierra	3237	0867-1	-2.04781376	38.44790893	Mapa	630	MDT5
02031000000	1020313	02300	02	Albacete	Férez	643	12614.1544	56948	02031000101	Férez	612	0867-4	-2.00953934	38.35567013	Mapa	682	MDT5
02032000000	1020328	02310	02	Albacete	Fuensanta	297	2395.6454	26368	02032000101	Fuensanta	294	0742-3	-2.06725219	39.24466001	Mapa	693	MDT5
02033000000	1020334	02320	02	Albacete	Fuente-Álamo	2489	13339.011	45577	02033000101	Fuente-Álamo	2436	0818-3	-1.43170411	38.69314229	Mapa	820	MDT5
02034000000	1020349	02330	02	Albacete	Fuentealbilla	1792	10829.379	64740	02034000301	Fuentealbilla	1605	0743-2	-1.54879364	39.26773579	Mapa	670	MDT5
02035000000	1020352	02340	02	Albacete	La Gineta	2512	13676.47	50035	02035000101	La Gineta	2287	0765-2	-1.99784496	39.11387916	Mapa	691	MDT5
02036000000	1020365	02350	02	Albacete	Golosalvo	104	2817.6676	24505	02036000101	Golosalvo	104	0743-4	-1.63626863	39.23996013	Mapa	740	MDT5
02037000000	1020371	02360	02	Albacete	Hellín	30306	78165.58	152380	02037000501	Hellín	25113	0843-3	-1.70344921	38.51218953	Mapa	570	MDT5
02038000000	1020387	02370	02	Albacete	La Herrera	326	6342.58	42320	02038000201	La Herrera	289	0790-1	-2.12637236	38.9621774	Mapa	714	MDT5
02039000000	1020390	02380	02	Albacete	Higueruela	1158	20545.4904	86388	02039000301	Higueruela	1136	0792-1	-1.44535609	38.96455026	Mapa	1041	MDT5
02040000000	1020404	02390	02	Albacete	Hoya-Gonzalo	647	11457.4972	48066	02040000101	Hoya-Gonzalo	643	0791-2	-1.55687053	38.95787352	Mapa	929	MDT5
02041000000	1020411	02400	02	Albacete	Jorquera	355	6797.0751	57182	02041000401	Jorquera	293	0743-4	-1.52061391	39.17457441	Mapa	624	MDT5
02042000000	1020426	02410	02	Albacete	Letur	919	26440.16	81881	02042000302	Letur	264	0867-3	-2.10096881	38.36632081	Mapa	735	MDT5
02043000000	1020432	02420	02	Albacete	Lezuza	1358	36090.3503	86191	02043000101	Lezuza	840	0789-1	-2.35387427	38.94878996	Mapa	913	MDT5
02044000000	1020447	02430	02	Albacete	Liétor	1175	31178.91	78803	02044000501	Liétor	1114	0842-4	-1.95479319	38.54083745	Mapa	641	MDT5
02045000000	1020450	02440	02	Albacete	Madrigueras	4652	7334.55	35851	02045000101	Madrigueras	4638	0743-3	-1.7997012	39.23680339	Mapa	688	MDT5
02046000000	1020463	02450	02	Albacete	Mahora	1383	10814.91	48081	02046000101	Mahora	1364	0743-3	-1.72481837	39.21303088	Mapa	663	MDT5
02047000000	1020479	02460	02	Albacete	Masegoso	110	10387.0257	42914	02047000301	Masegoso	32	0815-4	-2.31511768	38.71877813	Mapa	1108	MDT5
02048000000	1020485	02470	02	Albacete	Minaya	1501	6983.1234	44098	02048000101	Minaya	1480	0741-2	-2.31961973	39.27118701	Mapa	723	MDT5
02049000000	1020498	02480	02	Albacete	Molinicos	852	14358.8298	71840	02049001101	Molinicos	441	0866-2	-2.23898151	38.46778179	Mapa	851	MDT5
02050000000	1020501	02490	02	Albacete	Montalvos	97	2477.9315	23450	02050000101	Montalvos	93	0765-1	-2.02769341	39.16721439	Mapa	709	MDT5
02051000000	1020518	02500	02	Albacete	Montealegre del Castillo	2051	17782.23	54725	02051000101	Montealegre del Castillo	2030	0818-2	-1.32487672	38.78717469	Mapa	810	MDT5
02052000000	1020523	02510	02	Albacete	Motilleja	571	2382.44	24700	02052000101	Motilleja	570	0743-3	-1.79025762	39.17948885	Mapa	676	MDT5
02053000000	1020539	02520	02	Albacete	Munera	3435	22942.7623	58755	02053000101	Munera	3424	0764-3	-2.4830388	39.03954575	Mapa	929	MDT5
02054000000	1020544	02530	02	Albacete	Navas de Jorquera	517	4225.9722	26041	02054000101	Navas de Jorquera	517	0743-1	-1.7189485	39.28099513	Mapa	708	MDT5
02055000000	1020557	02540	02	Albacete	Nerpio	1191	43487.61	98897	02055000901	Nerpio	687	0909-2	-2.30224029	38.14824043	Mapa	1085	MDT5
02056000000	1020560	02550	02	Albacete	Ontur	1987	5441.14	30501	02056000101	Ontur	1987	0844-1	-1.49888166	38.61472661	Mapa	653	MDT5
02057000000	1020576	02560	02	Albacete	Ossa de Montiel	2307	24350.2479	69150	02057000201	Ossa de Montiel	2228	0788-1	-2.74272664	38.96201035	Mapa	898	MDT5
02058000000	1020582	02570	02	Albacete	Paterna del Madera	348	11233.8382	53946	02058000601	Paterna del Madera	284	0841-2	-2.34555766	38.59729435	Mapa	1126	MDT5
02059000000	1020595	02590	02	Albacete	Peñascosa	334	18925.8047	106221	02059000501	Peñascosa	196	0815-3	-2.41040499	38.67153536	Mapa	1169	MDT5
02060000000	1020609	02580	02	Albacete	Peñas de San Pedro	1399	15876.06	73331	02060000701	Peñas de San Pedro	1029	0816-4	-2.00212787	38.72688881	Mapa	1010	MDT5
02061000000	1020616	02600	02	Albacete	Pétrola	692	7460.7346	40804	02061000201	Pétrola	557	0817-2	-1.55549981	38.82629814	Mapa	870	MDT5
02062000000	1020621	02610	02	Albacete	Povedilla	430	4942.7325	35557	02062000101	Povedilla	413	0814-4	-2.60393627	38.70163971	Mapa	872	MDT5
02063000000	1020637	02630	02	Albacete	Pozohondo	1585	13648.62	49358	02063000501	Pozohondo	1003	0816-4	-1.91133356	38.721122	Mapa	871	MDT5
02064000000	1020642	02620	02	Albacete	Pozo-Lorente	409	8095.5291	36474	02064000101	Pozo-Lorente	407	0767-3	-1.50647855	39.07663024	Mapa	769	MDT5
02065000000	1020655	02640	02	Albacete	Pozuelo	481	13397.79	48394	02065000201	Pozuelo	448	0816-1	-2.10117384	38.80969625	Mapa	845	MDT5
02066000000	1020668	02650	02	Albacete	La Recueja	242	2973.9107	39019	02066000101	La Recueja	242	0744-3	-1.48988779	39.17688319	Mapa	542	MDT5
02067000000	1020674	02660	02	Albacete	Riópar	1332	8092.005	55582	02067000401	Riópar	1155	0841-3	-2.41839311	38.4998099	Mapa	1126	MDT5
02068000000	1020680	02670	02	Albacete	Robledo	367	12008.4392	51626	02068000301	Robledo	238	0815-1	-2.44882682	38.75778452	Mapa	1041	MDT5
02069000000	1020693	02680	02	Albacete	La Roda	15476	39889.13	127688	02069000101	La Roda	15389	0742-3	-2.15924796	39.20706504	Mapa	708	MDT5
02070000000	1020707	02690	02	Albacete	Salobre	480	4952.8648	39261	02070000201	Salobre	324	0840-2	-2.55057256	38.59195258	Mapa	920	MDT5
02071000000	1020714	02700	02	Albacete	San Pedro	1242	8311.597	37014	02071000401	San Pedro	1130	0816-1	-2.186211	38.82654004	Mapa	844	MDT5
02072000000	1020729	02710	02	Albacete	Socovos	1787	13903.76	65123	02072000401	Socovos	1158	0889-2	-1.98469065	38.33202632	Mapa	734	MDT5
02073000000	1020735	02720	02	Albacete	Tarazona de la Mancha	6235	21268.09	67722	02073000101	Tarazona de la Mancha	6209	0742-2	-1.91280979	39.26539647	Mapa	713	MDT5
02074000000	1020740	02730	02	Albacete	Tobarra	7684	32464.95	79846	02074000601	Tobarra	6747	0843-1	-1.69282296	38.5922733	Mapa	652	MDT5
02075000000	1020753	02740	02	Albacete	Valdeganga	2028	7065.62	42767	02075000102	Valdeganga	2005	0766-2	-1.67646922	39.13545152	Mapa	667	MDT5
02076000000	1020766	02750	02	Albacete	Vianos	346	12803.519	91378	02076000102	Vianos	344	0841-1	-2.50149079	38.632307	Mapa	1118	MDT5
02077000000	1020772	02760	02	Albacete	Villa de Ves	56	5753.568	35387	02077000101	Villa de Ves	44	0744-4	-1.25897631	39.22231541	Mapa	744	MDT5
02078000000	1020788	02770	02	Albacete	Villalgordo del Júcar	1094	4668.4938	32688	02078000101	Villalgordo del Júcar	1076	0742-1	-2.06309183	39.29598679	Mapa	683	MDT5
02079000000	1020791	02780	02	Albacete	Villamalea	4027	12833.82	63789	02079000103	Villamalea	4020	0718-4	-1.59908353	39.36160785	Mapa	739	MDT5
02080000000	1020805	02790	02	Albacete	Villapalacios	583	8747.7445	41446	02080000101	Villapalacios	582	0840-4	-2.63505947	38.57467359	Mapa	837	MDT5
02081000000	1020812	02800	02	Albacete	Villarrobledo	25184	86240.7816	140710	02081000301	Villarrobledo	24878	0740-2	-2.60714311	39.26755792	Mapa	728	MDT5
02082000000	1020827	02810	02	Albacete	Villatoya	109	1882.56	21792	02082000201	Villatoya	77	0744-2	-1.33858599	39.33385264	Mapa	409	MDT5
02083000000	1020833	02820	02	Albacete	Villavaliente	224	3484.1712	30502	02083000101	Villavaliente	224	0767-1	-1.45799642	39.12645758	Mapa	726	MDT5
02084000000	1020848	02830	02	Albacete	Villaverde de Guadalimar	338	6907.9679	39421	02084000501	Villaverde de Guadalimar	206	0866-1	-2.518480636	38.456169	Investigación	799	Investigación
02085000000	1020851	02840	02	Albacete	Viveros	337	6536.6666	45479	02085000101	Viveros	337	0814-2	-2.57590915	38.77363475	Mapa	1012	MDT5
02086000000	1020864	02850	02	Albacete	Yeste	2657	51122.0829	120663	02086001401	Yeste	1418	0866-4	-2.31903072	38.36643865	Mapa	878	MDT5
02901000000	1029010	02615	02	Albacete	Pozo Cañada	2797	11683.38	69208	02901000101	Pozo Cañada	2768	0817-1	-1.73622317	38.801361	Mapa	830	MDT5
03001000000	1030015	03005	03	Alacant/Alicante	l'Atzúbia	632	1466.9574	18376	03001000101	l'Atzúbia	384	0796-3	-0.15173035	38.84743029	Mapa	99	MDT5
03002000000	1030020	03010	03	Alacant/Alicante	Agost	4758	6663.5352	40007	03002000101	Agost	4029	0871-2	-0.63891979	38.43949316	Mapa	331	MDT5
03003000000	1030036	03015	03	Alacant/Alicante	Agres	565	2583.659	20529	03003000101	Agres	445	0821-1	-0.51595543	38.78000404	Mapa	719	MDT5
03004000000	1030041	03020	03	Alacant/Alicante	Aigües	963	1847.2816	20622	03004000101	Aigües	630	0872-1	-0.36258669	38.49887092	Mapa	332	MDT5
03005000000	1030054	03025	03	Alacant/Alicante	Albatera	12279	6154.27	34605	03005000101	Albatera	11530	0892-4	-0.86792141	38.17894636	Mapa	15	MDT5
03006000000	1030067	03030	03	Alacant/Alicante	Alcalalí	1278	1439.7787	21582	03006000101	Alcalalí	371	0822-3	-0.04160798	38.74965349	Mapa	226	MDT5
03007000000	1030073	03035	03	Alacant/Alicante	Alcocer de Planes	230	438.7155	9164	03007000101	Alcocer de Planes	127	0821-1	-0.40197036	38.79447224	Mapa	345	MDT5
03008000000	1030089	03040	03	Alacant/Alicante	Alcoleja	173	1455.8836	19193	03008000101	Alcoleja	159	0821-4	-0.33100925	38.67548564	Mapa	735	MDT5
03009000000	1030092	03045	03	Alacant/Alicante	Alcoy/Alcoi	58994	12986.0503	58858	03009000101	Alcoy/Alcoi	57358	0821-3	-0.47318376	38.69836894	Mapa	561	MDT5
03010000000	1030106	03050	03	Alacant/Alicante	Alfafara	410	1977.7677	18603	03010000101	Alfafara	385	0820-2	-0.55552339	38.77274828	Mapa	580	MDT5
03011000000	1030113	03055	03	Alacant/Alicante	l'Alfàs del Pi	20482	1925.9507	20927	03011000102	l'Alfàs del Pi	5477	0848-3	-0.1026002	38.58009496	Mapa	89	MDT5
03012000000	1030128	03060	03	Alacant/Alicante	Algorfa	2935	1847.09	29362	03012000101	Algorfa	1592	0914-1	-0.79568423	38.08681637	Mapa	23	MDT5
03013000000	1030134	03065	03	Alacant/Alicante	Algueña	1336	1847.39	29521	03013000101	Algueña	1259	0870-4	-1.00303745	38.33800138	Mapa	530	MDT5
03014000000	1030149	03001	03	Alacant/Alicante	Alicante/Alacant	334887	20126.5845	138902	03014000201	Alicante/Alacant	323174	0872-3	-0.4831832	38.34548705	Mapa	5	MDT5
03015000000	1030152	03070	03	Alacant/Alicante	Almoradí	20803	4269.4	53678	03015000101	Almoradí	18517	0914-1	-0.79201713	38.10977991	Mapa	10	MDT5
03016000000	1030165	03075	03	Alacant/Alicante	Almudaina	113	882.0194	12317	03016000101	Almudaina	108	0821-1	-0.35370678	38.76155764	Mapa	570	MDT5
03017000000	1030171	03080	03	Alacant/Alicante	l'Alqueria d'Asnar	493	108.3702	9555	03017000101	l'Alqueria d'Asnar	473	0821-1	-0.42552267	38.77311802	Mapa	363	MDT5
03018000000	1030187	03085	03	Alacant/Alicante	Altea	22290	3442.7986	30970	03018000102	Altea	14911	0848-1	-0.05144236	38.59892497	Mapa	60	MDT5
03019000000	1030190	03090	03	Alacant/Alicante	Aspe	20714	7057.09	38464	03019000101	Aspe	18668	0871-3	-0.76849107	38.34577266	Mapa	234	MDT5
03020000000	1030204	03095	03	Alacant/Alicante	Balones	131	1125	17176	03020000101	Balones	122	0821-4	-0.34237388	38.73701039	Mapa	670	MDT5
03021000000	1030211	03100	03	Alacant/Alicante	Banyeres de Mariola	7068	5027.5886	39273	03021000101	Banyeres de Mariola	6901	0820-4	-0.65685684	38.71635902	Mapa	812	MDT5
03022000000	1030226	03105	03	Alacant/Alicante	Benasau	151	904.039	16402	03022000202	Benasau	132	0821-4	-0.34261264	38.68991329	Mapa	705	MDT5
03023000000	1030232	03110	03	Alacant/Alicante	Beneixama	1685	3488.8204	26678	03023000101	Beneixama	1641	0820-3	-0.76676743	38.70018533	Mapa	592	MDT5
03024000000	1030247	03115	03	Alacant/Alicante	Benejúzar	5402	932.7958	15599	03024000101	Benejúzar	5402	0914-3	-0.83819517	38.07806375	Mapa	23	MDT5
03025000000	1030250	03120	03	Alacant/Alicante	Benferri	1942	1236.89	16679	03025000101	Benferri	1401	0913-2	-0.9622579	38.14179352	Mapa	56	MDT5
03026000000	1030263	03125	03	Alacant/Alicante	Beniarbeig	2092	740.3238	17593	03026000101	Beniarbeig	1997	0822-2	-0.00130364	38.82193219	Mapa	42	MDT5
03027000000	1030279	03130	03	Alacant/Alicante	Beniardá	232	1573.9453	21110	03027000101	Beniardá	176	0821-4	-0.21600764	38.68343356	Mapa	464	MDT5
03028000000	1030285	03135	03	Alacant/Alicante	Beniarrés	1118	2021.3756	20473	03028000101	Beniarrés	1078	0821-1	-0.37904234	38.82007885	Mapa	385	MDT5
03029000000	1030298	03140	03	Alacant/Alicante	Benigembla	490	1845.4265	17576	03029000101	Benigembla	279	0822-1	-0.10982699	38.75633514	Mapa	311	MDT5
03030000000	1030302	03145	03	Alacant/Alicante	Benidoleig	1095	748.4278	13133	03030000101	Benidoleig	669	0822-1	-0.03173239	38.791917	Mapa	124	MDT5
03031000000	1030319	03150	03	Alacant/Alicante	Benidorm	68721	3850.9874	39091	03031000102	Benidorm	67093	0848-3	-0.1306853	38.53427136	Mapa	11	MDT5
03032000000	1030324	03155	03	Alacant/Alicante	Benifallim	105	1368.8379	18200	03032000101	Benifallim	103	0847-1	-0.39922559	38.66273419	Mapa	738	MDT5
03033000000	1030330	03160	03	Alacant/Alicante	Benifato	140	1188.0505	15536	03033000101	Benifato	85	0821-4	-0.22888967	38.67369418	Mapa	663	MDT5
03034000000	1030345	03165	03	Alacant/Alicante	Benijófar	3322	435.9954	8848	03034000101	Benijófar	2210	0914-3	-0.73828051	38.0808408	Mapa	22	MDT5
03035000000	1030358	03170	03	Alacant/Alicante	Benilloba	724	953.8103	16495	03035000101	Benilloba	671	0821-3	-0.3908201	38.69955909	Mapa	521	MDT5
03036000000	1030361	03175	03	Alacant/Alicante	Benillup	97	337.8822	10655	03036000101	Benillup	94	0821-1	-0.3789958	38.75380301	Mapa	564	MDT5
03037000000	1030377	03180	03	Alacant/Alicante	Benimantell	483	3792.79	42148	03037000101	Benimantell	365	0821-4	-0.20984798	38.67659254	Mapa	546	MDT5
03038000000	1030383	03185	03	Alacant/Alicante	Benimarfull	409	556.3613	10384	03038000101	Benimarfull	366	0821-1	-0.39099875	38.77584801	Mapa	414	MDT5
03039000000	1030396	03190	03	Alacant/Alicante	Benimassot	106	951.2727	14024	03039000101	Benimassot	106	0821-4	-0.291855	38.74905825	Mapa	725	MDT5
03040000000	1030400	03195	03	Alacant/Alicante	Benimeli	418	350.4942	11959	03040000101	Benimeli	383	0822-1	-0.04146491	38.82296616	Mapa	93	MDT5
03041000000	1030417	03200	03	Alacant/Alicante	Benissa	11005	6970.7341	54032	03041000101	Benissa	7016	0822-4	0.05043358	38.7151969	Mapa	254	MDT5
03042000000	1030422	03205	03	Alacant/Alicante	Benitachell/el Poble Nou de Benitatxell	4276	1265.3812	16918	03042000102	Benitachell/el Poble Nou de Benitatxell	1772	0822-4	0.14459559	38.73292416	Mapa	163	MDT5
03043000000	1030438	03210	03	Alacant/Alicante	Biar	3671	9816.5159	40760	03043000101	Biar	3447	0846-1	-0.76597374	38.62996229	Mapa	697	MDT5
03044000000	1030443	03215	03	Alacant/Alicante	Bigastro	6733	409.8141	13443	03044000101	Bigastro	6728	0913-4	-0.89528476	38.06301558	Mapa	23	MDT5
03045000000	1030456	03220	03	Alacant/Alicante	Bolulla	420	1357.1512	16389	03045000101	Bolulla	273	0822-3	-0.11168494	38.67657681	Mapa	213	MDT5
03046000000	1030469	03225	03	Alacant/Alicante	Busot	2978	3384.1908	27619	03046000101	Busot	556	0872-1	-0.42050568	38.4819618	Mapa	312	MDT5
03047000000	1030475	03230	03	Alacant/Alicante	Calp	22725	2350.9119	28830	03047000101	Calp	12204	0848-2	0.04453809	38.64526261	Mapa	55	MDT5
03048000000	1030481	03235	03	Alacant/Alicante	Callosa d'en Sarrià	7373	3466.1654	30558	03048000102	Callosa d'en Sarrià	6546	0848-1	-0.12235041	38.65164066	Mapa	250	MDT5
03049000000	1030494	03240	03	Alacant/Alicante	Callosa de Segura	19038	2490.77	41368	03049000101	Callosa de Segura	17110	0913-2	-0.87933854	38.12258136	Mapa	20	MDT5
03050000000	1030507	03245	03	Alacant/Alicante	el Campello	28349	5526.7822	51303	03050000204	el Campello	15837	0872-1	-0.40086509	38.42754724	Mapa	26	MDT5
03051000000	1030514	03250	03	Alacant/Alicante	Campo de Mirra/el Camp de Mirra	415	2181.5853	26539	03051000101	Campo de Mirra/el Camp de Mirra	398	0820-3	-0.77925393	38.68719624	Mapa	585	MDT5
03052000000	1030529	03255	03	Alacant/Alicante	Cañada	1220	1932.4451	24508	03052000101	Cañada	1189	0820-3	-0.80952172	38.67518917	Mapa	556	MDT5
03053000000	1030535	03260	03	Alacant/Alicante	Castalla	10124	11459.9725	56120	03053000101	Castalla	8554	0846-2	-0.67026538	38.59657643	Mapa	669	MDT5
03054000000	1030540	03265	03	Alacant/Alicante	Castell de Castells	449	4592.67	28244	03054000101	Castell de Castells	403	0821-4	-0.19391054	38.72499704	Mapa	549	MDT5
03055000000	1030553	03270	03	Alacant/Alicante	Catral	8639	2002.31	20330	03055000102	Catral	7059	0914-1	-0.80464175	38.15964959	Mapa	8	MDT5
03056000000	1030566	03275	03	Alacant/Alicante	Cocentaina	11511	5294.4709	38405	03056000401	Cocentaina	9723	0821-3	-0.44022067	38.74541202	Mapa	433	MDT5
03057000000	1030572	03280	03	Alacant/Alicante	Confrides	187	3998.3328	30719	03057000201	Confrides	90	0821-4	-0.26810894	38.68353731	Mapa	780	MDT5
03058000000	1030588	03285	03	Alacant/Alicante	Cox	7297	1670.97	35761	03058000201	Cox	7189	0913-2	-0.88437585	38.13972138	Mapa	16	MDT5
03059000000	1030591	03290	03	Alacant/Alicante	Crevillent	28952	10455.01	51135	03059000202	Crevillent	23815	0893-3	-0.80855322	38.24881414	Mapa	129	MDT5
03060000000	1030605	03295	03	Alacant/Alicante	Quatretondeta	122	1670.4812	18277	03060000101	Quatretondeta	120	0821-4	-0.31641906	38.72386675	Mapa	620	MDT5
03061000000	1030612	03300	03	Alacant/Alicante	Daya Nueva	1737	709.3467	11032	03061000101	Daya Nueva	1570	0914-1	-0.76103525	38.11371672	Mapa	8	MDT5
03062000000	1030627	03305	03	Alacant/Alicante	Daya Vieja	690	314.2879	7310	03062000101	Daya Vieja	545	0914-1	-0.73805702	38.1047248	Mapa	6	MDT5
03063000000	1030633	03310	03	Alacant/Alicante	Dénia	42166	6617.916	86143	03063000101	Dénia	25343	0796-4	0.10661934	38.84122705	Mapa	13	MDT5
03064000000	1030648	03315	03	Alacant/Alicante	Dolores	7470	1870.1083	21304	03064000101	Dolores	6266	0914-1	-0.76969869	38.13897736	Mapa	4	MDT5
03065000000	1030651	03320	03	Alacant/Alicante	Elche/Elx	232517	32650.14	91867	03065001101	Elche/Elx	190696	0893-1	-0.69775581	38.26741662	Mapa	82	MDT5
03066000000	1030664	03325	03	Alacant/Alicante	Elda	52618	4578.8813	30557	03066000101	Elda	51188	0871-1	-0.79611046	38.47878894	Mapa	395	MDT5
03067000000	1030670	03330	03	Alacant/Alicante	Facheca	106	1017.479	15760	03067000101	Facheca	104	0821-4	-0.26771337	38.73467536	Mapa	769	MDT5
03068000000	1030686	03335	03	Alacant/Alicante	Famorca	47	972.4032	12929	03068000101	Famorca	47	0821-4	-0.24604552	38.73219338	Mapa	684	MDT5
03069000000	1030699	03340	03	Alacant/Alicante	Finestrat	6715	4225.3968	29962	03069000202	Finestrat	1942	0847-4	-0.2117688	38.56697349	Mapa	264	MDT5
03070000000	1030703	03345	03	Alacant/Alicante	Formentera del Segura	4191	433.1745	12939	03070000201	Formentera del Segura	2662	0914-3	-0.74649853	38.08423377	Mapa	8	MDT5
03071000000	1030710	03350	03	Alacant/Alicante	Gata de Gorgos	6049	2033.1876	20037	03071000101	Gata de Gorgos	4884	0822-2	0.08427495	38.7732101	Mapa	79	MDT5
03072000000	1030725	03355	03	Alacant/Alicante	Gaianes	452	957.1426	12485	03072000101	Gaianes	278	0821-1	-0.40755768	38.81311114	Mapa	420	MDT5
03073000000	1030731	03360	03	Alacant/Alicante	Gorga	249	910.6836	18983	03073000101	Gorga	224	0821-3	-0.35671735	38.71833445	Mapa	542	MDT5
03074000000	1030746	03365	03	Alacant/Alicante	Granja de Rocamora	2580	716.89	41219	03074000101	Granja de Rocamora	2523	0913-2	-0.89001674	38.15262779	Mapa	17	MDT5
03075000000	1030759	03370	03	Alacant/Alicante	el Castell de Guadalest	217	1596.02	21929	03075000101	el Castell de Guadalest	144	0821-4	-0.19735239	38.67694213	Mapa	571	MDT5
03076000000	1030762	03375	03	Alacant/Alicante	Guardamar del Segura	15348	3393.72	33048	03076000103	Guardamar del Segura	12039	0914-2	-0.65477035	38.08988071	Mapa	27	MDT5
03077000000	1030778	03380	03	Alacant/Alicante	el Fondó de les Neus/Hondón de las Nieves	2544	6885.1772	36777	03077000201	el Fondó de les Neus/Hondón de las Nieves	1200	0892-2	-0.85486637	38.30855695	Mapa	367	MDT5
03078000000	1030784	03385	03	Alacant/Alicante	Hondón de los Frailes	1198	1254.5898	14915	03078000101	Hondón de los Frailes	515	0892-2	-0.92699487	38.27358559	Mapa	413	MDT5
03079000000	1030797	03390	03	Alacant/Alicante	Ibi	23489	6252.4351	30903	03079000101	Ibi	22898	0846-2	-0.57466482	38.62745682	Mapa	754	MDT5
03080000000	1030801	03395	03	Alacant/Alicante	Jacarilla	2022	1220.4205	18436	03080000101	Jacarilla	1889	0913-4	-0.86635637	38.06070041	Mapa	25	MDT5
03081000000	1030818	03400	03	Alacant/Alicante	Xaló	2739	3458.6303	31489	03081000101	Xaló	1748	0822-4	-0.01192072	38.74069906	Mapa	188	MDT5
03082000000	1030823	03405	03	Alacant/Alicante	Jávea/Xàbia	27604	6859.0349	52582	03082000214	Jávea/Xàbia	12717	0823-1	0.16340067	38.78925837	Mapa	48	MDT5
03083000000	1030839	03410	03	Alacant/Alicante	Jijona/Xixona	6865	16376.0691	68034	03083000101	Jijona/Xixona	6444	0847-3	-0.50791278	38.53902509	Mapa	462	MDT5
03084000000	1030844	03415	03	Alacant/Alicante	Lorcha/l'Orxa	578	3176.4696	24599	03084000101	Lorcha/l'Orxa	542	0795-4	-0.31125116	38.84403413	Mapa	267	MDT5
03085000000	1030857	03420	03	Alacant/Alicante	Llíber	935	2193.274	26922	03085000101	Llíber	346	0822-4	0.006304	38.74347137	Mapa	191	MDT5
03086000000	1030860	03425	03	Alacant/Alicante	Millena	237	977.3401	16190	03086000101	Millena	113	0821-3	-0.36337482	38.73087323	Mapa	635	MDT5
03088000000	1030882	03430	03	Alacant/Alicante	Monforte del Cid	8165	7952.2261	49689	03088000301	Monforte del Cid	6208	0871-3	-0.72989187	38.37928097	Mapa	228	MDT5
03089000000	1030895	03435	03	Alacant/Alicante	Monóvar/Monòver	12167	15235.6842	54964	03089000401	Monóvar/Monòver	9927	0871-1	-0.83780533	38.43721579	Mapa	390	MDT5
03090000000	1030909	03440	03	Alacant/Alicante	Mutxamel	25352	4765.3187	34880	03090000114	Mutxamel	14409	0872-3	-0.44522331	38.41368396	Mapa	63	MDT5
03091000000	1030916	03445	03	Alacant/Alicante	Murla	470	581.336	11828	03091000101	Murla	267	0822-1	-0.08306874	38.75958883	Mapa	283	MDT5
03092000000	1030921	03450	03	Alacant/Alicante	Muro de Alcoy	9324	3024.3942	31128	03092000401	Muro de Alcoy	8122	0821-1	-0.4357044	38.77998192	Mapa	391	MDT5
03093000000	1030937	03455	03	Alacant/Alicante	Novelda	25651	7572.424	42521	03093000202	Novelda	23403	0871-3	-0.76539782	38.38606382	Mapa	241	MDT5
03094000000	1030942	03460	03	Alacant/Alicante	la Nucia	18603	2136.1299	30865	03094000103	la Nucia	5289	0848-1	-0.12289748	38.61761623	Mapa	216	MDT5
03095000000	1030955	03465	03	Alacant/Alicante	Ondara	6894	1041.3359	20045	03095000101	Ondara	6209	0822-2	0.01764367	38.82692459	Mapa	36	MDT5
03096000000	1030968	03470	03	Alacant/Alicante	Onil	7507	4841.0481	33675	03096000101	Onil	7116	0846-2	-0.6740463	38.62952092	Mapa	701	MDT5
03097000000	1030974	03475	03	Alacant/Alicante	Orba	2174	1772.9579	26196	03097000304	Orba	1118	0822-1	-0.06371253	38.78039233	Mapa	154	MDT5
03098000000	1030980	03480	03	Alacant/Alicante	Orxeta	736	2406.2327	30104	03098000102	Orxeta	482	0847-4	-0.2618598	38.56400384	Mapa	176	MDT5
03099000000	1030993	03485	03	Alacant/Alicante	Orihuela	77414	36536.33	234084	03099002102	Orihuela	31591	0913-2	-0.94664572	38.08574117	Mapa	25	MDT5
03100000000	1031007	03490	03	Alacant/Alicante	Parcent	929	1177.04	15015	03100000101	Parcent	630	0822-3	-0.06446788	38.74571695	Mapa	290	MDT5
03101000000	1031014	03495	03	Alacant/Alicante	Pedreguer	7699	2958.2241	24883	03101000104	Pedreguer	5552	0822-2	0.03432468	38.7935383	Mapa	85	MDT5
03102000000	1031029	03500	03	Alacant/Alicante	Pego	10128	5284.6658	33677	03102000102	Pego	9302	0796-3	-0.11803172	38.84201714	Mapa	82	MDT5
03103000000	1031035	03505	03	Alacant/Alicante	Penàguila	292	4992.4963	47903	03103000101	Penàguila	245	0821-3	-0.35881625	38.67944195	Mapa	682	MDT5
03104000000	1031040	03510	03	Alacant/Alicante	Petrer	34276	10409.0751	43769	03104000103	Petrer	29321	0871-1	-0.76953712	38.48480043	Mapa	465	MDT5
03105000000	1031053	03515	03	Alacant/Alicante	el Pinós/Pinoso	7966	12646.02	59560	03105000801	el Pinós/Pinoso	6745	0870-3	-1.04195399	38.40441177	Mapa	591	MDT5
03106000000	1031066	03520	03	Alacant/Alicante	Planes	693	3886.7596	27974	03106000401	Planes	535	0821-2	-0.34478535	38.78583429	Mapa	451	MDT5
03107000000	1031072	03525	03	Alacant/Alicante	Polop	4965	2255.93	22516	03107000201	Polop	3526	0848-1	-0.12654723	38.62255314	Mapa	239	MDT5
03109000000	1031091	03530	03	Alacant/Alicante	Rafal	4498	157.02	6583	03109000101	Rafal	4445	0914-1	-0.84889051	38.10480713	Mapa	13	MDT5
03110000000	1031105	03535	03	Alacant/Alicante	el Ràfol d'Almúnia	653	487.7576	12870	03110000101	el Ràfol d'Almúnia	389	0822-1	-0.05280018	38.82066727	Mapa	87	MDT5
03111000000	1031112	03540	03	Alacant/Alicante	Redován	7869	944.7868	22932	03111000102	Redován	6961	0913-2	-0.90524865	38.1140353	Mapa	28	MDT5
03112000000	1031127	03545	03	Alacant/Alicante	Relleu	1160	7687.2352	40730	03112000101	Relleu	638	0847-2	-0.31086389	38.58727823	Mapa	435	MDT5
03113000000	1031133	03550	03	Alacant/Alicante	Rojales	16963	2772.86	37034	03113000103	Rojales	4894	0914-1	-0.7231866	38.08892037	Mapa	8	MDT5
03114000000	1031148	03555	03	Alacant/Alicante	la Romana	2434	4329.3741	31883	03114000102	la Romana	1546	0870-4	-0.8960138	38.36742371	Mapa	419	MDT5
03115000000	1031151	03560	03	Alacant/Alicante	Sagra	408	561.9059	11673	03115000101	Sagra	395	0822-1	-0.06512199	38.81142807	Mapa	103	MDT5
03116000000	1031164	03565	03	Alacant/Alicante	Salinas	1601	6171.1716	32115	03116000101	Salinas	1281	0845-4	-0.91278122	38.52006995	Mapa	493	MDT5
03117000000	1031170	03590	03	Alacant/Alicante	Sanet y Negrals	667	394.1625	8049	03117000101	Sanet y Negrals	471	0822-1	-0.03373355	38.81916633	Mapa	83	MDT5
03118000000	1031186	03570	03	Alacant/Alicante	San Fulgencio	7855	2070.11	20939	03118000203	San Fulgencio	1370	0914-1	-0.71879025	38.11222765	Mapa	4	MDT5
03119000000	1031199	03575	03	Alacant/Alicante	Sant Joan d'Alacant	23915	963.8765	13854	03119000108	Sant Joan d'Alacant	21042	0872-3	-0.43660694	38.40151192	Mapa	40	MDT5
03120000000	1031203	03580	03	Alacant/Alicante	San Miguel de Salinas	6034	5484.62	29622	03120000103	San Miguel de Salinas	3765	0935-1	-0.78930554	37.97713811	Mapa	87	MDT5
03121000000	1031210	03595	03	Alacant/Alicante	Santa Pola	32306	5816.0985	43087	03121000106	Santa Pola	22938	0893-4	-0.55528061	38.1931155	Mapa	4	MDT5
03122000000	1031225	03585	03	Alacant/Alicante	San Vicente del Raspeig/Sant Vicent del Raspeig	58385	4055.084	38579	03122000605	San Vicente del Raspeig/Sant Vicent del Raspeig	53472	0871-4	-0.52499072	38.39613348	Mapa	107	MDT5
03123000000	1031231	03600	03	Alacant/Alicante	Sax	9845	6348.3656	31468	03123000101	Sax	8739	0846-3	-0.81692328	38.53849557	Mapa	473	MDT5
03124000000	1031246	03605	03	Alacant/Alicante	Sella	580	3872.053	29382	03124000101	Sella	481	0847-2	-0.27218087	38.60812245	Mapa	412	MDT5
03125000000	1031259	03610	03	Alacant/Alicante	Senija	584	478.6374	11096	03125000102	Senija	366	0822-4	0.04175328	38.72826598	Mapa	231	MDT5
03127000000	1031278	03620	03	Alacant/Alicante	Tàrbena	646	3167.0038	28630	03127000101	Tàrbena	467	0822-3	-0.1019394	38.69363337	Mapa	559	MDT5
03128000000	1031284	03625	03	Alacant/Alicante	Teulada	11112	3225	30407	03128000215	Teulada	4277	0822-4	0.10231946	38.72911733	Mapa	183	MDT5
03129000000	1031297	03630	03	Alacant/Alicante	Tibi	1614	7038.2694	35711	03129000103	Tibi	970	0846-4	-0.57799241	38.53125236	Mapa	517	MDT5
03130000000	1031301	03635	03	Alacant/Alicante	Tollos	57	1597.312	19407	03130000101	Tollos	57	0821-2	-0.27417974	38.75700785	Mapa	776	MDT5
03131000000	1031318	03640	03	Alacant/Alicante	Tormos	340	536	14453	03131000101	Tormos	280	0822-1	-0.0723226	38.80205024	Mapa	129	MDT5
03132000000	1031323	03645	03	Alacant/Alicante	Torremanzanas/la Torre de les Maçanes	661	3647.9641	29931	03132000101	Torremanzanas/la Torre de les Maçanes	528	0847-1	-0.41885176	38.60676744	Mapa	791	MDT5
03133000000	1031339	03650	03	Alacant/Alicante	Torrevieja	83337	7176.02	47324	03133000206	Torrevieja	61444	0935-2	-0.68302608	37.97775873	Mapa	7	MDT5
03134000000	1031344	03655	03	Alacant/Alicante	la Vall d'Alcalà	167	2285.0561	24552	03134000101	Alcalà de la Jovada	110	0821-2	-0.25201489	38.79456237	Mapa	639	MDT5
03135000000	1031357	03660	03	Alacant/Alicante	la Vall d'Ebo	216	3242.5432	24069	03135000101	la Vall d'Ebo	201	0822-1	-0.15985139	38.80574426	Mapa	392	MDT5
03136000000	1031360	03665	03	Alacant/Alicante	Vall de Gallinera	571	5363.2909	36163	03136000101	Benialí	130	0821-2	-0.22174105	38.82200923	Mapa	293	MDT5
03137000000	1031376	03670	03	Alacant/Alicante	la Vall de Laguar	846	2305.4272	24361	03137000001	la Vall de Laguar	0	0822-1	-0.10944662	38.77743427	Mapa	439	MDT5
03138000000	1031382	03675	03	Alacant/Alicante	el Verger	4640	815.895	13551	03138000101	el Verger	4108	0796-4	0.01012098	38.84290338	Mapa	21	MDT5
03139000000	1031395	03680	03	Alacant/Alicante	Villajoyosa/la Vila Joiosa	34673	5924.8127	41201	03139000401	Villajoyosa/la Vila Joiosa	21854	0847-4	-0.2319288	38.50545611	Mapa	16	MDT5
03140000000	1031409	03685	03	Alacant/Alicante	Villena	33964	34538.21	96744	03140000510	Villena	31984	0845-2	-0.86138343	38.62963811	Mapa	503	MDT5
03901000000	1039016	03615	03	Alacant/Alicante	els Poblets	2705	362.0743	8537	03901000301	Setla	382	0796-4	0.01680187	38.85116436	Mapa	13	MDT5
03902000000	1039021	03512	03	Alacant/Alicante	Pilar de la Horadada	21905	7781.26	47092	03902000103	Pilar de la Horadada	14157	0935-3	-0.79242783	37.86372554	Mapa	32	MDT5
03903000000	1039037	03437	03	Alacant/Alicante	Los Montesinos	4968	1499.03	21321	03903000101	Los Montesinos	4528	0914-3	-0.74364774	38.02749921	Mapa	19	MDT5
03904000000	1039042	03572	03	Alacant/Alicante	San Isidro	1986	1169.884	15948	03904000101	San Isidro	1948	0893-3	-0.83836588	38.17123285	Mapa	10	MDT5
04001000000	1040010	04005	04	Almería	Abla	1249	4524.4244	46589	04001000101	Abla	1183	1029-1	-2.77953953	37.1412099	Mapa	853	MDT5
04002000000	1040025	04010	04	Almería	Abrucena	1202	8367.747	58614	04002000101	Abrucena	1073	1029-1	-2.7974669	37.13218285	Mapa	986	MDT5
04003000000	1040031	04015	04	Almería	Adra	25148	8969.45	51619	04003000101	Adra	20069	1057-1	-3.02330257	36.74868325	Mapa	14	MDT5
04004000000	1040046	04020	04	Almería	Albanchez	741	3491.3	26860	04004000101	Albanchez	631	1014-1	-2.18135854	37.28686167	Mapa	487	MDT5
04005000000	1040059	04025	04	Almería	Alboloduy	616	6973.4477	47842	04005000101	Alboloduy	581	1029-4	-2.62168571	37.03339629	Mapa	381	MDT5
04006000000	1040062	04030	04	Almería	Albox	11805	16827.6	61380	04006000101	Albox	8268	0996-3	-2.14799133	37.38850758	Mapa	420	MDT5
04007000000	1040078	04035	04	Almería	Alcolea	825	6751.6723	47344	04007000101	Alcolea	689	1043-2	-2.96066637	36.97361957	Mapa	746	MDT5
04008000000	1040084	04040	04	Almería	Alcóntar	505	9390.6745	59358	04008000101	Alcóntar	118	0994-4	-2.59756879	37.33611796	Mapa	955	MDT5
04009000000	1040097	04045	04	Almería	Alcudia de Monteagud	152	1552.04	22484	04009000101	Alcudia de Monteagud	148	1013-4	-2.26678969	37.23587193	Mapa	1025	MDT5
04010000000	1040101	04050	04	Almería	Alhabia	671	1639.4593	18386	04010000101	Alhabia	617	1044-2	-2.58702093	36.98991242	Mapa	290	MDT5
04011000000	1040118	04055	04	Almería	Alhama de Almería	3641	2624.375	25588	04011000101	Alhama de Almería	3300	1044-2	-2.56977648	36.95718281	Mapa	520	MDT5
04012000000	1040123	04060	04	Almería	Alicún	206	587.3104	14336	04012000101	Alicún	198	1044-2	-2.60215517	36.96671607	Mapa	414	MDT5
04013000000	1040139	04001	04	Almería	Almería	198533	29572.44	127373	04013000101	Almería	167506	1045-3	-2.46413188	36.83892362	Mapa	16	MDT5
04014000000	1040144	04065	04	Almería	Almócita	169	3082.5201	39310	04014000101	Almócita	167	1029-3	-2.78984397	37.00274251	Mapa	835	MDT5
04015000000	1040157	04070	04	Almería	Alsodux	125	2010.2293	32083	04015000101	Alsodux	90	1029-4	-2.59464638	37.00135999	Mapa	309	MDT5
04016000000	1040160	04075	04	Almería	Antas	3182	9973.47	42414	04016000201	Antas	1805	1014-4	-1.91715315	37.24459175	Mapa	108	MDT5
04017000000	1040176	04080	04	Almería	Arboleas	4596	6614.36	46628	04017000101	Arboleas	770	0996-3	-2.0754646	37.35116011	Mapa	270	MDT5
04018000000	1040182	04085	04	Almería	Armuña de Almanzora	302	772.17	15299	04018000101	Armuña de Almanzora	280	0995-3	-2.41135555	37.34982202	Mapa	630	MDT5
04019000000	1040195	04090	04	Almería	Bacares	246	9452.09	39976	04019000101	Bacares	245	1013-1	-2.45318749	37.26120059	Mapa	1209	MDT5
04020000000	1040209	04095	04	Almería	Bayárcal	317	3802.3734	35027	04020000101	Bayárcal	307	1028-4	-2.99562617	37.03018267	Mapa	1252	MDT5
04021000000	1040216	04100	04	Almería	Bayarque	215	2636.08	28909	04021000101	Bayarque	202	1013-1	-2.43594364	37.33068864	Mapa	817	MDT5
04022000000	1040221	04105	04	Almería	Bédar	971	4672.13	33619	04022000201	Bédar	350	1014-4	-1.98182232	37.19030833	Mapa	401	MDT5
04023000000	1040237	04110	04	Almería	Beires	110	3883.4832	37726	04023000101	Beires	110	1029-3	-2.79152516	37.01264326	Mapa	934	MDT5
04024000000	1040242	04115	04	Almería	Benahadux	4382	1661.5387	18999	04024000101	Benahadux	4107	1045-1	-2.455766	36.925792	Investigación	115	Investigación
04026000000	1040268	04125	04	Almería	Benitagla	58	639.68	14152	04026000101	Benitagla	58	1013-4	-2.23834784	37.23123941	Mapa	945	MDT5
04027000000	1040274	04130	04	Almería	Benizalón	254	3197.26	32485	04027000101	Benizalón	155	1013-4	-2.24067815	37.21246044	Mapa	932	MDT5
04028000000	1040280	04135	04	Almería	Bentarique	238	1134.3564	28435	04028000101	Bentarique	230	1044-2	-2.61889692	36.98631438	Mapa	316	MDT5
04029000000	1040293	04140	04	Almería	Berja	12415	18581.24	66447	04029000401	Berja	9485	1043-4	-2.94948207	36.84732147	Mapa	340	MDT5
04030000000	1040307	04145	04	Almería	Canjáyar	1214	6692.6563	57977	04030000201	Canjáyar	1124	1029-3	-2.73944378	37.01006973	Mapa	602	MDT5
04031000000	1040314	04150	04	Almería	Cantoria	3204	7895.2	49635	04031000401	Cantoria	1881	0995-4	-2.19324978	37.35219371	Mapa	381	MDT5
04032000000	1040329	04155	04	Almería	Carboneras	8004	9546.4247	57089	04032000401	Carboneras	6832	1046-2	-1.89349648	36.99742391	Mapa	6	MDT5
04033000000	1040335	04160	04	Almería	Castro de Filabres	123	2923.5664	29594	04033000101	Castro de Filabres	123	1013-3	-2.43912676	37.18484936	Mapa	945	MDT5
04034000000	1040340	04165	04	Almería	Cóbdar	171	3199.11	31598	04034000101	Cóbdar	146	1013-2	-2.21001778	37.26157453	Mapa	606	MDT5
04035000000	1040353	04170	04	Almería	Cuevas del Almanzora	14081	26398.49	75887	04035030501	Cuevas del Almanzora	6533	1014-2	-1.87991806	37.2967313	Mapa	89	MDT5
04036000000	1040366	04175	04	Almería	Chercos	278	1355.46	15071	04036000101	Chercos	176	1013-2	-2.258064172	37.26711184	Mapa	912	MDT5
04037000000	1040372	04180	04	Almería	Chirivel	1472	19647.14	73611	04037000601	Chirivel	1038	0973-2	-2.26658541	37.59512473	Mapa	1039	MDT5
04038000000	1040388	04185	04	Almería	Dalías	4006	14072.85	79402	04038000401	Dalías	3429	1057-2	-2.87111055	36.82078429	Mapa	411	MDT5
04041000000	1040412	04200	04	Almería	Enix	466	6684.4603	53230	04041000101	Enix	288	1044-4	-2.60175846	36.8769393	Mapa	716	MDT5
04043000000	1040433	04210	04	Almería	Felix	628	8126.2027	41816	04043000201	Felix	547	1044-4	-2.65861622	36.86898567	Mapa	820	MDT5
04044000000	1040448	04215	04	Almería	Fines	2079	2312.44	26401	04044000501	Fines	1748	0995-4	-2.263629	37.35887254	Mapa	444	MDT5
04045000000	1040451	04220	04	Almería	Fiñana	1994	13395.9718	71085	04045000201	Fiñana	1929	1012-3	-2.84178852	37.17135438	Mapa	950	MDT5
04046000000	1040464	04225	04	Almería	Fondón	989	9115.8777	58602	04046000201	Fondón	642	1043-2	-2.85918906	36.97993167	Mapa	846	MDT5
04047000000	1040470	04230	04	Almería	Gádor	3012	8767.0204	62237	04047000101	Gádor	2678	1045-1	-2.49279322	36.9530923	Mapa	173	MDT5
04048000000	1040486	04235	04	Almería	Los Gallardos	2794	3489.79	35113	04048000401	Los Gallardos	1529	1014-4	-1.9417002	37.17027055	Mapa	121	MDT5
04049000000	1040499	04240	04	Almería	Garrucha	9212	776.6	17344	04049000101	Garrucha	9191	1015-3	-1.82347743	37.1797194	Mapa	20	MDT5
04050000000	1040502	04245	04	Almería	Gérgal	1030	22948.7704	77389	04050001001	Gérgal	770	1029-2	-2.53905331	37.12083904	Mapa	763	MDT5
04051000000	1040519	04250	04	Almería	Huécija	480	1901.8613	24555	04051000101	Huécija	469	1044-2	-2.60994487	36.96802203	Mapa	409	MDT5
04052000000	1040524	04255	04	Almería	Huércal de Almería	17651	2092.75	22894	04052000404	Huércal de Almería	6916	1045-3	-2.43599715	36.88406432	Mapa	69	MDT5
04053000000	1040530	04260	04	Almería	Huércal-Overa	19127	31845.86	81471	04053000701	Huércal-Overa	14194	0996-4	-1.943031	37.38937619	Mapa	279	MDT5
04054000000	1040545	04265	04	Almería	Íllar	394	1918.8146	26168	04054000101	Íllar	366	1044-2	-2.63886001	36.9849617	Mapa	424	MDT5
04055000000	1040558	04270	04	Almería	Instinción	448	3348.4996	40556	04055000101	Instinción	425	1044-2	-2.65979091	36.99319077	Mapa	427	MDT5
04056000000	1040561	04275	04	Almería	Laroya	192	2171.34	21998	04056000201	Laroya	155	1013-2	-2.3320851	37.29604768	Mapa	860	MDT5
04057000000	1040577	04280	04	Almería	Láujar de Andarax	1536	9280.8708	64264	04057000101	Láujar de Andarax	1454	1043-2	-2.88903331	36.99456726	Mapa	920	MDT5
04058000000	1040583	04285	04	Almería	Líjar	390	2824.06	25327	04058000101	Líjar	355	1013-2	-2.21999131	37.29501881	Mapa	604	MDT5
04059000000	1040596	04290	04	Almería	Lubrín	1477	13813.87	53702	04059000502	Lubrín	594	1014-3	-2.06592032	37.21648353	Mapa	516	MDT5
04060000000	1040600	04295	04	Almería	Lucainena de las Torres	538	12320.2811	66727	04060000101	Lucainena de las Torres	352	1030-4	-2.2011865	37.0402677	Mapa	549	MDT5
04061000000	1040617	04300	04	Almería	Lúcar	763	10071.84	47251	04061000401	Lúcar	388	0995-3	-2.42494356	37.40081642	Mapa	900	MDT5
04062000000	1040622	04305	04	Almería	Macael	5482	4382.21	30696	04062000101	Macael	5442	1013-2	-2.30432229	37.33233031	Mapa	536	MDT5
04063000000	1040638	04310	04	Almería	María	1238	22561.57	82626	04063000601	María	1073	0952-3	-2.16479793	37.7115544	Mapa	1197	MDT5
04064000000	1040643	04315	04	Almería	Mojácar	6403	7153.7421	47958	04064000501	Mojácar	1318	1032-1	-1.85016798	37.14008707	Mapa	140	MDT5
04065000000	1040656	04320	04	Almería	Nacimiento	495	8075.8142	45591	04065000301	Nacimiento	425	1029-2	-2.64792293	37.10502345	Mapa	596	MDT5
04066000000	1040669	04325	04	Almería	Níjar	30663	59976.79	132948	04066001601	Níjar	2198	1045-2	-2.20611069	36.96580749	Mapa	357	MDT5
04067000000	1040675	04330	04	Almería	Ohanes	580	3241.3093	26510	04067000101	Ohanes	560	1029-3	-2.74552024	37.03829786	Mapa	961	MDT5
04068000000	1040681	04335	04	Almería	Olula de Castro	196	3360.3839	28988	04068000101	Olula de Castro	182	1013-3	-2.47387144	37.17517469	Mapa	1005	MDT5
04069000000	1040694	04340	04	Almería	Olula del Río	6210	2344	25834	04069000501	Olula del Río	5693	0995-4	-2.29735506	37.3531739	Mapa	485	MDT5
04070000000	1040708	04345	04	Almería	Oria	2249	23471.05	76660	04070000101	Oria	962	0995-2	-2.29602131	37.48360163	Mapa	1022	MDT5
04071000000	1040715	04350	04	Almería	Padules	410	2649.1784	29702	04071000101	Padules	405	1044-1	-2.77409853	36.99862987	Mapa	747	MDT5
04072000000	1040720	04355	04	Almería	Partaloa	1110	5260.56	31003	04072000301	Partaloa	297	0995-4	-2.2262643	37.40605456	Mapa	543	MDT5
04073000000	1040736	04360	04	Almería	Paterna del Río	371	4548.0817	32494	04073000201	Paterna del Río	320	1028-4	-2.95313089	37.02162718	Mapa	1201	MDT5
04074000000	1040741	04365	04	Almería	Pechina	4037	4605.6772	30746	04074000101	Pechina	2958	1045-3	-2.44105175	36.91567505	Mapa	105	MDT5
04075000000	1040754	04370	04	Almería	Pulpí	10055	9459.67	48678	04075030201	Pulpí	4559	0997-3	-1.745159	37.41211031	Mapa	194	MDT5
04076000000	1040767	04375	04	Almería	Purchena	1618	5660.39	55757	04076000201	Purchena	1371	0995-3	-2.36166335	37.34731041	Mapa	551	MDT5
04077000000	1040773	04380	04	Almería	Rágol	316	2692.1943	31675	04077000101	Rágol	316	1044-2	-2.68123514	36.9953238	Mapa	405	MDT5
04078000000	1040789	04385	04	Almería	Rioja	1417	3640.4382	26023	04078000301	Rioja	1246	1045-1	-2.46389912	36.94267969	Mapa	128	MDT5
04079000000	1040792	04390	04	Almería	Roquetas de Mar	96800	5964.8732	51463	04079001001	Roquetas de Mar	46422	1058-2	-2.6150576	36.76467854	Mapa	7	MDT5
04080000000	1040806	04395	04	Almería	Santa Cruz de Marchena	208	1997.2556	28403	04080000201	Santa Cruz de Marchena	167	1029-4	-2.60298289	37.01700109	Mapa	330	MDT5
04081000000	1040813	04400	04	Almería	Santa Fe de Mondújar	452	3486.9229	41916	04081000601	Santa Fe de Mondújar	284	1044-2	-2.5313124	36.97425446	Mapa	215	MDT5
04082000000	1040828	04405	04	Almería	Senés	295	5024.77	37939	04082000301	Senés	212	1013-4	-2.34726177	37.20447008	Mapa	1008	MDT5
04083000000	1040834	04410	04	Almería	Serón	2041	16628.17	78110	04083090401	Serón	1215	0995-3	-2.50991257	37.34295293	Mapa	823	MDT5
04084000000	1040849	04415	04	Almería	Sierro	381	2764.38	26586	04084000101	Sierro	379	1013-1	-2.39864285	37.32144567	Mapa	755	MDT5
04085000000	1040852	04420	04	Almería	Somontín	446	1612.71	31246	04085000101	Somontín	373	0995-3	-2.38745675	37.39094721	Mapa	824	MDT5
04086000000	1040865	04425	04	Almería	Sorbas	2388	24915.79	79999	04086070101	Sorbas	1415	1031-1	-2.124113	37.09821538	Mapa	409	MDT5
04087000000	1040871	04430	04	Almería	Suflí	204	1009.17	22019	04087000101	Suflí	191	0995-3	-2.39014365	37.33823085	Mapa	630	MDT5
04088000000	1040887	04435	04	Almería	Tabernas	3688	28037.6595	71753	04088001201	Tabernas	3098	1030-3	-2.39150625	37.04984427	Mapa	402	MDT5
04089000000	1040890	04440	04	Almería	Taberno	925	4405.98	36433	04089000601	Taberno	537	0996-1	-2.07770837	37.46930863	Mapa	712	MDT5
04090000000	1040904	04445	04	Almería	Tahal	362	9459.82	60535	04090000501	Tahal	271	1013-4	-2.28473564	37.22770702	Mapa	1008	MDT5
04091000000	1040911	04450	04	Almería	Terque	377	1571.7866	39964	04091000101	Terque	355	1044-2	-2.5960885	36.98374179	Mapa	285	MDT5
04092000000	1040926	04455	04	Almería	Tíjola	3541	6773.33	48150	04092000701	Tíjola	2980	0995-3	-2.43885542	37.34438543	Mapa	688	MDT5
04093000000	1040932	04460	04	Almería	Turre	3549	10795.7063	54227	04093000901	Turre	3076	1031-2	-1.89426392	37.15286446	Mapa	51	MDT5
04094000000	1040947	04465	04	Almería	Turrillas	240	3916.91	29992	04094000401	Turrillas	162	1030-4	-2.26512269	37.0299004	Mapa	845	MDT5
04095000000	1040950	04470	04	Almería	Uleila del Campo	833	3866.69	27124	04095001001	Uleila del Campo	674	1013-4	-2.2035137	37.18525562	Mapa	627	MDT5
04096000000	1040963	04475	04	Almería	Urrácal	350	2546.7129	22549	04096000201	Urrácal	295	0995-3	-2.36518023	37.39750865	Mapa	744	MDT5
04097000000	1040979	04480	04	Almería	Velefique	242	6644.7	41436	04097000101	Velefique	232	1013-3	-2.40192493	37.19492499	Mapa	926	MDT5
04098000000	1040985	04485	04	Almería	Vélez-Blanco	1904	44130.63	115833	04098000101	Vélez-Blanco	1184	0952-3	-2.09608111	37.69085853	Mapa	1076	MDT5
04099000000	1040998	04490	04	Almería	Vélez-Rubio	6555	28225.92	82659	04099000101	Vélez-Rubio	5543	0974-1	-2.07415558	37.64799415	Mapa	838	MDT5
04100000000	1041002	04495	04	Almería	Vera	16452	5759.15	39048	04100000302	Vera	12060	1014-4	-1.86877507	37.24675325	Mapa	101	MDT5
04101000000	1041019	04500	04	Almería	Viator	5885	2062.06	19674	04101000201	Viator	5189	1045-3	-2.42781271	36.88906423	Mapa	71	MDT5
04102000000	1041024	04505	04	Almería	Vícar	26028	6434.03	54606	04102000901	Vícar	121	1058-2	-2.64392746	36.83084658	Mapa	279	MDT5
04103000000	1041030	04510	04	Almería	Zurgena	3005	7166.98	41966	04103001001	Zurgena	637	0996-3	-2.03993235	37.34234106	Mapa	239	MDT5
04901000000	1049011	04458	04	Almería	Las Tres Villas	568	8535.4083	51794	04901000801	Doña María Ocaña	92	1029-1	-2.71216116	37.13516947	Mapa	689	MDT5
04902000000	1049026	04195	04	Almería	El Ejido	83594	22613.46	96246	04902000301	El Ejido	43513	1058-1	-2.81490838	36.77576137	Mapa	81	MDT5
04903000000	1049032	04318	04	Almería	La Mojonera	9021	2386.6756	25930	04903000201	La Mojonera	6208	1058-2	-2.68308803	36.75456705	Mapa	40	MDT5
04904000000	1049047	04092	04	Almería	Balanegra	3009	3159.32	25005	04904000101	Balanegra	2976	No disponible	-2.90884074	36.74594326	Mapa	6	MDT5
05001000000	1050013	05003	05	Ávila	Adanero	196	3141.7781	24382	05001000101	Adanero	196	0481-2	-4.60377542	40.94423557	Mapa	910	MDT5
05002000000	1050028	05006	05	Ávila	La Adrada	2480	5867.4353	41862	05002000101	La Adrada	2419	0579-2	-4.63746033	40.30136381	Mapa	624	MDT5
05005000000	1050052	05015	05	Ávila	Albornos	183	1709.9669	21884	05005000101	Albornos	178	0480-4	-4.88627099	40.83545261	Mapa	911	MDT5
05007000000	1050071	05021	05	Ávila	Aldeanueva de Santa Cruz	118	848.2739	15540	05007000101	Aldeanueva de Santa Cruz	118	0554-3	-5.41959204	40.38196006	Mapa	1162	MDT5
05008000000	1050087	05024	05	Ávila	Aldeaseca	238	2424.6149	21594	05008000101	Aldeaseca	238	0455-3	-4.81751947	41.04920154	Mapa	859	MDT5
05010000000	1050104	05027	05	Ávila	La Aldehuela	162	1714.9413	17734	05010000101	La Aldehuela	155	0554-3	-5.408369	40.410172	Investigación	1070	Investigación
05012000000	1050126	05033	05	Ávila	Amavida	132	1501.6021	19999	05012000101	Amavida	94	0530-3	-5.06123239	40.57148196	Mapa	1163	MDT5
05013000000	1050132	05036	05	Ávila	El Arenal	973	2707.8429	23435	05013000101	El Arenal	959	0578-1	-5.08685361	40.26521196	Mapa	888	MDT5
05014000000	1050147	05039	05	Ávila	Arenas de San Pedro	6377	19461.7265	117650	05014000101	Arenas de San Pedro	5568	0578-3	-5.0911461	40.20868842	Mapa	507	MDT5
05015000000	1050150	05042	05	Ávila	Arevalillo	73	1496.6675	19395	05015000101	Arevalillo	68	0529-1	-5.37199751	40.58706309	Mapa	1130	MDT5
05016000000	1050163	05045	05	Ávila	Arévalo	7986	4571.172	48294	05016000101	Arévalo	7978	0455-3	-4.71892472	41.06550483	Mapa	820	MDT5
05017000000	1050179	05048	05	Ávila	Aveinte	86	1284.1462	24719	05017000101	Aveinte	86	0506-1	-4.83760071	40.78314581	Mapa	1002	MDT5
05018000000	1050185	05051	05	Ávila	Avellaneda	24	1023.2802	12668	05018000101	Avellaneda	24	0554-3	-5.38806013	40.38865969	Mapa	1353	MDT5
05019000000	1050198	05001	05	Ávila	Ávila	57744	23070.44	172349	05019000301	Ávila	57031	0531-1	-4.69771277	40.65586958	Mapa	1131	MDT5
05021000000	1050219	05054	05	Ávila	El Barco de Ávila	2312	1268.3759	14319	05021000101	El Barco de Ávila	2312	0553-4	-5.52704093	40.35576349	Mapa	1004	MDT5
05022000000	1050224	05057	05	Ávila	El Barraco	1861	15390.0813	67498	05022000102	El Barraco	1767	0556-2	-4.64114216	40.47607893	Mapa	1008	MDT5
05023000000	1050230	05060	05	Ávila	Barromán	185	2003.2541	23285	05023000101	Barromán	185	0454-4	-4.93135736	41.06568002	Mapa	800	MDT5
05024000000	1050245	05063	05	Ávila	Becedas	196	3220.3196	26380	05024000101	Becedas	179	0553-4	-5.63456079	40.40515651	Mapa	1097	MDT5
05025000000	1050258	05066	05	Ávila	Becedillas	84	1986.1379	26718	05025000101	Becedillas	74	0529-4	-5.33091124	40.53862676	Mapa	1062	MDT5
05026000000	1050261	05069	05	Ávila	Bercial de Zapardiel	200	1730.6392	18611	05026000101	Bercial de Zapardiel	200	0454-4	-4.97072941	41.04621476	Mapa	807	MDT5
05027000000	1050277	05072	05	Ávila	Las Berlanas	319	1669.2759	26341	05027000101	Las Berlanas	319	0506-1	-4.76116873	40.80356051	Mapa	946	MDT5
05029000000	1050296	05078	05	Ávila	Bernuy-Zapardiel	102	1978.107	22258	05029000101	Bernuy-Zapardiel	102	0480-2	-4.94334789	40.97602472	Mapa	865	MDT5
05030000000	1050300	05081	05	Ávila	Berrocalejo de Aragona	46	900.7877	21507	05030000101	Berrocalejo de Aragona	41	0506-4	-4.5922361	40.69953051	Mapa	1092	MDT5
05033000000	1050338	05084	05	Ávila	Blascomillán	193	3960.3496	37760	05033000201	Blascomillán	146	0505-1	-5.08872691	40.8016527	Mapa	948	MDT5
05034000000	1050343	05087	05	Ávila	Blasconuño de Matacabras	16	1298.773	18959	05034000101	Blasconuño de Matacabras	16	0454-2	-4.98988245	41.12387142	Mapa	786	MDT5
05035000000	1050356	05090	05	Ávila	Blascosancho	105	2295.0394	22844	05035000101	Blascosancho	94	0481-4	-4.63734676	40.87824933	Mapa	902	MDT5
05036000000	1050369	05093	05	Ávila	El Bohodón	120	2208.9284	28603	05036000101	El Bohodón	120	0481-3	-4.72983798	40.91626371	Mapa	883	MDT5
05037000000	1050375	05096	05	Ávila	Bohoyo	237	7386.53	42791	05037000101	Bohoyo	178	0577-1	-5.44265278	40.31665496	Mapa	1139	MDT5
05038000000	1050381	05099	05	Ávila	Bonilla de la Sierra	120	5505.5706	53365	05038000101	Bonilla de la Sierra	75	0529-4	-5.26499051	40.53083069	Mapa	1077	MDT5
05039000000	1050394	05102	05	Ávila	Brabos	46	1834.8923	30929	05039000101	Brabos	22	0505-2	-4.93950653	40.78034277	Mapa	994	MDT5
05040000000	1050408	05105	05	Ávila	Bularros	66	3075.9053	47138	05040000101	Bularros	35	0505-4	-4.86504123	40.72400997	Mapa	1169	MDT5
05041000000	1050415	05108	05	Ávila	Burgohondo	1195	5533.6245	39834	05041000101	Burgohondo	1154	0556-3	-4.78592781	40.41614328	Mapa	847	MDT5
05042000000	1050420	05111	05	Ávila	Cabezas de Alambre	157	1180.3764	15036	05042000101	Cabezas de Alambre	157	0481-1	-4.84057883	40.94315804	Mapa	900	MDT5
05043000000	1050436	05114	05	Ávila	Cabezas del Pozo	75	1796.5859	19167	05043000101	Cabezas del Pozo	75	0480-2	-4.95481242	41.00123218	Mapa	843	MDT5
05044000000	1050441	05117	05	Ávila	Cabezas del Villar	260	11006.7223	62675	05044000101	Cabezas del Villar	252	0504-4	-5.21188659	40.71627838	Mapa	1048	MDT5
05045000000	1050454	05120	05	Ávila	Cabizuela	84	1917.2197	22618	05045000101	Cabizuela	84	0481-3	-4.80129441	40.90118972	Mapa	884	MDT5
05046000000	1050467	05123	05	Ávila	Canales	45	667.118	12763	05046000101	Canales	45	0454-4	-4.90117313	41.00396705	Mapa	857	MDT5
05047000000	1050473	05126	05	Ávila	Candeleda	5018	21391.1495	66250	05047000101	Candeleda	4273	0600-2	-5.23914852	40.15248281	Mapa	429	MDT5
05048000000	1050489	05129	05	Ávila	Cantiveros	103	1437.4055	22809	05048000101	Cantiveros	103	0480-2	-4.95618555	40.95192842	Mapa	875	MDT5
05049000000	1050492	05132	05	Ávila	Cardeñosa	447	4050.1297	35911	05049000101	Cardeñosa	438	0506-3	-4.74363401	40.74228434	Mapa	1105	MDT5
05051000000	1050512	05138	05	Ávila	La Carrera	175	1416.2705	17386	05051000101	La Carrera	122	0553-4	-5.55514674	40.34733577	Mapa	1048	MDT5
05052000000	1050527	05141	05	Ávila	Casas del Puerto	89	2214.0675	32310	05052000101	Casas del Puerto	89	0529-4	-5.19835696	40.52856873	Mapa	1174	MDT5
05053000000	1050533	05144	05	Ávila	Casasola	75	1836.12	27208	05053000101	Casasola	38	0531-1	-4.82825364	40.66685716	Mapa	1310	MDT5
05054000000	1050548	05147	05	Ávila	Casavieja	1424	3924.5582	27844	05054000101	Casavieja	1392	0579-1	-4.7658077	40.27929676	Mapa	538	MDT5
05055000000	1050551	05150	05	Ávila	Casillas	638	1198.89	16307	05055000101	Casillas	636	0579-2	-4.57233428	40.32320357	Mapa	1012	MDT5
05056000000	1050564	05153	05	Ávila	Castellanos de Zapardiel	97	1269.7958	17064	05056000101	Castellanos de Zapardiel	97	0454-2	-4.90890242	41.08471768	Mapa	783	MDT5
05057000000	1050570	05156	05	Ávila	Cebreros	3120	13747.0999	65199	05057000101	Cebreros	3059	0557-1	-4.46439928	40.45477868	Mapa	755	MDT5
05058000000	1050586	05159	05	Ávila	Cepeda la Mora	74	3139.541	27258	05058000101	Cepeda la Mora	74	0555-1	-5.04919741	40.45915722	Mapa	1504	MDT5
05059000000	1050599	05162	05	Ávila	Cillán	93	1417.2286	30772	05059000101	Cillán	93	0505-4	-4.97799497	40.70436552	Mapa	1211	MDT5
05060000000	1050603	05165	05	Ávila	Cisla	102	2031.0446	23022	05060000101	Cisla	102	0480-2	-5.01322747	40.96529531	Mapa	853	MDT5
05061000000	1050610	05168	05	Ávila	La Colilla	336	1080	24212	05061000101	La Colilla	317	0531-1	-4.76650196	40.64673944	Mapa	1130	MDT5
05062000000	1050625	05171	05	Ávila	Collado de Contreras	168	1843.8449	20568	05062000101	Collado de Contreras	168	0480-4	-4.93002136	40.8877304	Mapa	917	MDT5
05063000000	1050631	05174	05	Ávila	Collado del Mirón	32	484.1141	10534	05063000101	Collado del Mirón	32	0529-3	-5.35355748	40.55448986	Mapa	1166	MDT5
05064000000	1050646	05177	05	Ávila	Constanzana	108	2684.6059	25165	05064000101	Constanzana	84	0480-2	-4.87406351	40.93842104	Mapa	890	MDT5
05065000000	1050659	05180	05	Ávila	Crespos	495	3192.3105	28522	05065000101	Crespos	405	0480-4	-4.96994627	40.87320139	Mapa	923	MDT5
05066000000	1050662	05183	05	Ávila	Cuevas del Valle	484	1917.2663	20008	05066000101	Cuevas del Valle	484	0578-2	-5.00939452	40.29420346	Mapa	842	MDT5
05067000000	1050678	05186	05	Ávila	Chamartín	76	1545.3727	21408	05067000101	Chamartín	76	0505-4	-4.95811175	40.70161495	Mapa	1197	MDT5
05069000000	1050697	05192	05	Ávila	Donjimeno	78	1474.787	16095	05069000101	Donjimeno	78	0481-1	-4.84498084	40.96004917	Mapa	883	MDT5
05070000000	1050701	05195	05	Ávila	Donvidas	34	1147.87	14228	05070000101	Donvidas	34	0455-1	-4.80472375	41.08863948	Mapa	868	MDT5
05072000000	1050723	05201	05	Ávila	Espinosa de los Caballeros	114	1940.3251	21798	05072000101	Espinosa de los Caballeros	113	0455-4	-4.65097435	41.00911924	Mapa	858	MDT5
05073000000	1050739	05204	05	Ávila	Flores de Ávila	306	4304.3634	36391	05073000201	Flores de Ávila	252	0480-1	-5.07809713	40.93420293	Mapa	895	MDT5
05074000000	1050744	05207	05	Ávila	Fontiveros	748	3641.6615	30669	05074000101	Fontiveros	748	0480-2	-4.96743565	40.9302718	Mapa	884	MDT5
05075000000	1050757	05210	05	Ávila	Fresnedilla	116	2453	22308	05075000101	Fresnedilla	110	0579-4	-4.62111813	40.2319559	Mapa	622	MDT5
05076000000	1050760	05213	05	Ávila	El Fresno	589	1311.49	30725	05076000101	El Fresno	578	0531-1	-4.75728726	40.6141894	Mapa	1074	MDT5
05077000000	1050776	05216	05	Ávila	Fuente el Saúz	170	981.2738	14534	05077000101	Fuente el Saúz	170	0480-2	-4.90922087	40.97751384	Mapa	876	MDT5
05078000000	1050782	05219	05	Ávila	Fuentes de Año	100	2000.6524	18914	05078000101	Fuentes de Año	100	0454-4	-4.89800749	41.01754859	Mapa	822	MDT5
05079000000	1050795	05222	05	Ávila	Gallegos de Altamiros	70	2046.9425	23757	05079000201	Gallegos	25	0505-4	-4.90142455	40.70564361	Mapa	1255	MDT5
05080000000	1050809	05225	05	Ávila	Gallegos de Sobrinos	42	4326.5759	34764	05080000201	Gallegos de Sobrinos	17	0505-3	-5.111145	40.716598	Investigación	1175	Investigación
05081000000	1050816	05228	05	Ávila	Garganta del Villar	39	1819.1375	20107	05081000101	Garganta del Villar	39	0555-1	-5.10523822	40.44970815	Mapa	1463	MDT5
05082000000	1050821	05231	05	Ávila	Gavilanes	586	2915.9214	32326	05082000101	Gavilanes	581	0578-2	-4.85383975	40.27685672	Mapa	678	MDT5
05083000000	1050837	05234	05	Ávila	Gemuño	156	1718.5573	28355	05083000101	Gemuño	156	0531-1	-4.78230282	40.59292508	Mapa	1103	MDT5
05084000000	1050842	05240	05	Ávila	Gilbuena	64	1513.1145	19382	05084000101	Gilbuena	64	0553-4	-5.60883757	40.4142884	Mapa	1062	MDT5
05085000000	1050855	05237	05	Ávila	Gil García	35	1545.3536	21288	05085000101	Gil García	35	0576-2	-5.59614999	40.29722194	Mapa	1144	MDT5
05086000000	1050868	05243	05	Ávila	Gimialcón	75	1905.3162	23799	05086000101	Gimialcón	75	0480-3	-5.12294363	40.87731373	Mapa	948	MDT5
05087000000	1050874	05246	05	Ávila	Gotarrendura	162	1063.439	17825	05087000101	Gotarrendura	162	0506-1	-4.73909452	40.82713572	Mapa	930	MDT5
05088000000	1050880	05249	05	Ávila	Grandes y San Martín	27	1159.1614	18413	05088000101	Grandes	16	0505-2	-4.95877717	40.75500242	Mapa	1005	MDT5
05089000000	1050893	05252	05	Ávila	Guisando	497	3832.7785	33664	05089000101	Guisando	497	0578-3	-5.14011248	40.22196303	Mapa	760	MDT5
05090000000	1050907	05255	05	Ávila	Gutierre-Muñoz	78	2215.3496	25351	05090000101	Gutierre-Muñoz	78	0481-2	-4.63649134	40.98269875	Mapa	885	MDT5
05092000000	1050929	05258	05	Ávila	Hernansancho	159	1937.8988	24359	05092000101	Hernansancho	158	0481-3	-4.73033726	40.85748892	Mapa	900	MDT5
05093000000	1050935	05261	05	Ávila	Herradón de Pinares	413	4839.5285	32151	05093000201	El Herradón	93	0531-4	-4.56022994	40.56531144	Mapa	924	MDT5
05094000000	1050940	05264	05	Ávila	Herreros de Suso	126	2153.1609	25678	05094000101	Herreros de Suso	126	0505-1	-5.03849366	40.80253351	Mapa	1009	MDT5
05095000000	1050953	05267	05	Ávila	Higuera de las Dueñas	262	3502	34552	05095000101	Higuera de las Dueñas	253	0579-4	-4.60112267	40.23788276	Mapa	634	MDT5
05096000000	1050966	05270	05	Ávila	La Hija de Dios	80	1250.2646	16846	05096000101	La Hija de Dios	80	0530-4	-4.97266473	40.5338715	Mapa	1179	MDT5
05097000000	1050972	05273	05	Ávila	La Horcajada	508	4652.1368	33790	05097000201	La Horcajada	447	0554-1	-5.46643139	40.43530535	Mapa	1033	MDT5
05099000000	1050991	05279	05	Ávila	Horcajo de las Torres	505	4732.1222	29490	05099000101	Horcajo de las Torres	505	0454-3	-5.09061991	41.06488191	Mapa	820	MDT5
05100000000	1051005	05282	05	Ávila	El Hornillo	290	2327.0929	25118	05100000101	El Hornillo	289	0578-3	-5.10365524	40.2499538	Mapa	748	MDT5
05101000000	1051012	05288	05	Ávila	Hoyocasero	293	5230	33879	05101000101	Hoyocasero	293	0555-4	-4.97560667	40.39950776	Mapa	1348	MDT5
05102000000	1051027	05285	05	Ávila	El Hoyo de Pinares	2131	8051.3528	46904	05102000101	El Hoyo de Pinares	2113	0532-3	-4.4227064	40.50212632	Mapa	850	MDT5
05103000000	1051033	05291	05	Ávila	Hoyorredondo	63	1721.8833	16909	05103000601	Hoyorredondo	39	0554-1	-5.40982245	40.46235174	Mapa	1038	MDT5
05104000000	1051048	05297	05	Ávila	Hoyos del Collado	33	988.2768	16902	05104000101	Hoyos del Collado	33	0554-4	-5.19937502	40.35870192	Mapa	1474	MDT5
05105000000	1051051	05300	05	Ávila	Hoyos del Espino	383	5291.6497	41141	05105000101	Hoyos del Espino	379	0555-3	-5.17905228	40.36204127	Mapa	1484	MDT5
05106000000	1051064	05294	05	Ávila	Hoyos de Miguel Muñoz	28	1186.9264	17316	05106000101	Hoyos de Miguel Muñoz	28	0555-3	-5.06690238	40.3934329	Mapa	1534	MDT5
05107000000	1051070	05303	05	Ávila	Hurtumpascual	51	1861.1255	21475	05107000201	Hurtumpascual	13	0505-3	-5.1109785	40.69275778	Mapa	1170	MDT5
05108000000	1051086	05306	05	Ávila	Junciana	38	1501.7018	18927	05108000201	Junciana	38	0553-4	-5.55741457	40.41102429	Mapa	994	MDT5
05109000000	1051099	05309	05	Ávila	Langa	478	2445.215	19597	05109000101	Langa	478	0454-4	-4.8591111	41.00755363	Mapa	865	MDT5
05110000000	1051103	05312	05	Ávila	Lanzahíta	828	3367.1594	24006	05110000101	Lanzahíta	813	0578-4	-4.93695407	40.20367903	Mapa	448	MDT5
05112000000	1051125	05318	05	Ávila	El Losar del Barco	105	1953.9267	21504	05112000301	El Losar del Barco	54	0553-4	-5.53901427	40.39240577	Mapa	1009	MDT5
05113000000	1051131	05321	05	Ávila	Los Llanos de Tormes	60	1746.1207	20035	05113000201	Los Llanos de Tormes	45	0577-1	-5.49867436	40.32831194	Mapa	1053	MDT5
05114000000	1051146	05324	05	Ávila	Madrigal de las Altas Torres	1415	10680.1756	53726	05114000101	Madrigal de las Altas Torres	1413	0454-2	-4.9983297	41.08975855	Mapa	809	MDT5
05115000000	1051159	05327	05	Ávila	Maello	594	6534.1696	57581	05115000101	Maello	340	0507-1	-4.5098191	40.8110326	Mapa	1024	MDT5
05116000000	1051162	05330	05	Ávila	Malpartida de Corneja	99	1906.8448	22278	05116000101	Malpartida de Corneja	99	0529-4	-5.35099316	40.52069073	Mapa	1019	MDT5
05117000000	1051178	05333	05	Ávila	Mamblas	204	2403.6542	23175	05117000101	Mamblas	204	0454-4	-5.00984865	41.01919223	Mapa	819	MDT5
05118000000	1051184	05336	05	Ávila	Mancera de Arriba	74	1758.5489	21462	05118000101	Mancera de Arriba	74	0505-1	-5.14830175	40.79092914	Mapa	934	MDT5
05119000000	1051197	05339	05	Ávila	Manjabálago y Ortigosa de Rioalmar	24	1701.1551	25020	05119000201	Manjabálago	11	0530-1	-5.07671016	40.6643022	Mapa	1286	MDT5
05120000000	1051201	05342	05	Ávila	Marlín	30	639.3937	14660	05120000101	Marlín	30	0506-3	-4.82937834	40.71276225	Mapa	1203	MDT5
05121000000	1051218	05345	05	Ávila	Martiherrero	312	2279.237	40141	05121000101	Martiherrero	258	0506-3	-4.78179568	40.67393415	Mapa	1230	MDT5
05122000000	1051223	05348	05	Ávila	Martínez	116	1806.4725	21836	05122000101	Martínez	111	0529-2	-5.34692026	40.63081246	Mapa	1094	MDT5
05123000000	1051239	05351	05	Ávila	Mediana de Voltoya	112	1837.6003	28171	05123000101	Mediana de Voltoya	112	0506-4	-4.56260008	40.70062006	Mapa	1109	MDT5
05124000000	1051244	05354	05	Ávila	Medinilla	95	2287.7706	21505	05124000101	Medinilla	95	0553-2	-5.61826337	40.43974687	Mapa	1066	MDT5
05125000000	1051257	05357	05	Ávila	Mengamuñoz	59	1174.6574	15480	05125000101	Mengamuñoz	59	0555-2	-4.99909673	40.50080697	Mapa	1312	MDT5
05126000000	1051260	05360	05	Ávila	Mesegar de Corneja	62	1028.5809	18447	05126000101	Mesegar de Corneja	62	0529-4	-5.3015071	40.50157206	Mapa	1018	MDT5
05127000000	1051276	05363	05	Ávila	Mijares	701	4696.2555	38595	05127000102	Mijares	680	0579-1	-4.83846916	40.29776767	Mapa	848	MDT5
05128000000	1051282	05366	05	Ávila	Mingorría	387	3068.9775	31042	05128000101	Mingorría	376	0506-4	-4.6651746	40.75102765	Mapa	1032	MDT5
05129000000	1051295	05369	05	Ávila	El Mirón	122	3107.5713	26350	05129000201	El Mirón	109	0529-3	-5.40518728	40.53167299	Mapa	1258	MDT5
05130000000	1051309	05372	05	Ávila	Mironcillo	102	1523.2142	23008	05130000101	Mironcillo	98	0531-3	-4.82534856	40.55495884	Mapa	1122	MDT5
05131000000	1051316	05375	05	Ávila	Mirueña de los Infanzones	95	3120.5415	32847	05131000101	Mirueña de los Infanzones	95	0505-3	-5.09371737	40.73749901	Mapa	1110	MDT5
05132000000	1051321	05378	05	Ávila	Mombeltrán	991	4991.5535	68256	05132000201	Mombeltrán	900	0578-2	-5.01788793	40.26016615	Mapa	635	MDT5
05133000000	1051337	05381	05	Ávila	Monsalupe	71	1769.9191	24940	05133000101	Monsalupe	70	0506-1	-4.78130421	40.76920147	Mapa	1002	MDT5
05134000000	1051342	05384	05	Ávila	Moraleja de Matacabras	52	1492.7573	16293	05134000101	Moraleja de Matacabras	52	0454-2	-4.95709677	41.10730121	Mapa	783	MDT5
05135000000	1051355	05387	05	Ávila	Muñana	375	3361.3894	27433	05135000101	Muñana	353	0530-2	-5.01464764	40.59096044	Mapa	1169	MDT5
05136000000	1051368	05390	05	Ávila	Muñico	89	1327.5774	23716	05136000101	Muñico	81	0505-3	-5.02790731	40.70662475	Mapa	1088	MDT5
05138000000	1051380	05393	05	Ávila	Muñogalindo	326	1877.1219	40539	05138000101	Muñogalindo	261	0530-2	-4.90139731	40.60386238	Mapa	1128	MDT5
05139000000	1051393	05396	05	Ávila	Muñogrande	66	1616.0801	24337	05139000201	Muñogrande	26	0505-2	-4.92142682	40.82157685	Mapa	941	MDT5
05140000000	1051407	05399	05	Ávila	Muñomer del Peco	118	1008.8593	18417	05140000101	Muñomer del Peco	118	0480-4	-4.88046515	40.8595712	Mapa	895	MDT5
05141000000	1051414	05402	05	Ávila	Muñopepe	100	601.9016	16562	05141000101	Muñopepe	97	0531-1	-4.82058269	40.63359439	Mapa	1118	MDT5
05142000000	1051429	05405	05	Ávila	Muñosancho	92	1971.61	22908	05142000101	Muñosancho	86	0480-1	-5.03504576	40.92197306	Mapa	905	MDT5
05143000000	1051435	05408	05	Ávila	Muñotello	62	1994.4108	21657	05143000101	Muñotello	62	0530-3	-5.04068939	40.54269682	Mapa	1152	MDT5
05144000000	1051440	05414	05	Ávila	Narrillos del Álamo	72	2934.6582	35746	05144000301	Narrillos del Álamo	37	0529-3	-5.46669469	40.56705525	Mapa	1116	MDT5
05145000000	1051453	05417	05	Ávila	Narrillos del Rebollar	48	1740.6824	22984	05145000201	Narrillos del Rebollar	31	0530-2	-4.96587472	40.66491971	Mapa	1378	MDT5
05147000000	1051472	05423	05	Ávila	Narros del Castillo	155	3360.5785	27975	05147000101	Narros del Castillo	140	0480-3	-5.0596323	40.85896048	Mapa	956	MDT5
05148000000	1051488	05426	05	Ávila	Narros del Puerto	24	1037.3185	14983	05148000101	Narros del Puerto	24	0530-4	-4.98967711	40.5406329	Mapa	1150	MDT5
05149000000	1051491	05420	05	Ávila	Narros de Saldueña	103	943.8255	15364	05149000101	Narros de Saldueña	103	0480-4	-4.86950561	40.87487342	Mapa	899	MDT5
05151000000	1051511	05435	05	Ávila	Navacepedilla de Corneja	92	2950.1637	23940	05151000201	Navacepedilla de Corneja	87	0555-1	-5.1843499	40.4858388	Mapa	1255	MDT5
05152000000	1051526	05429	05	Ávila	Nava de Arévalo	735	5826.4192	37831	05152000201	Nava de Arévalo	444	0481-1	-4.7763084	40.97853053	Mapa	864	MDT5
05153000000	1051532	05432	05	Ávila	Nava del Barco	84	2937.2428	27917	05153000101	Nava del Barco	84	0576-2	-5.54153356	40.29330109	Mapa	1143	MDT5
05154000000	1051547	05438	05	Ávila	Navadijos	37	1985.3438	21806	05154000101	Navadijos	37	0555-1	-5.08356359	40.42559007	Mapa	1520	MDT5
05155000000	1051550	05441	05	Ávila	Navaescurial	51	3531.2043	24305	05155000301	Navaescurial	9	0554-2	-5.27677503	40.47160594	Mapa	1211	MDT5
05156000000	1051563	05444	05	Ávila	Navahondilla	304	2206.6498	21140	05156000101	Navahondilla	158	0580-1	-4.49364928	40.32528223	Mapa	740	MDT5
05157000000	1051579	05447	05	Ávila	Navalacruz	247	5003	41501	05157000101	Navalacruz	247	0555-2	-4.93221308	40.43997747	Mapa	1238	MDT5
05158000000	1051585	05450	05	Ávila	Navalmoral	326	4335.3267	27103	05158000101	Navalmoral	326	0556-1	-4.7632382	40.45986732	Mapa	1042	MDT5
05159000000	1051598	05453	05	Ávila	Navalonguilla	226	9075.1016	43233	05159000201	Navalonguilla	190	0577-1	-5.49815864	40.27760913	Mapa	1185	MDT5
05160000000	1051602	05456	05	Ávila	Navalosa	308	2999.8843	30551	05160000101	Navalosa	308	0555-4	-4.93118074	40.40182635	Mapa	1304	MDT5
05161000000	1051619	05459	05	Ávila	Navalperal de Pinares	770	4982.7979	30196	05161000101	Navalperal de Pinares	768	0532-1	-4.4091325	40.59448598	Mapa	1284	MDT5
05162000000	1051624	05462	05	Ávila	Navalperal de Tormes	82	6096.12	48995	05162000101	Navalperal de Tormes	73	0554-4	-5.30007964	40.35287936	Mapa	1301	MDT5
05163000000	1051630	05465	05	Ávila	Navaluenga	1954	7352.9972	37509	05163000101	Navaluenga	1826	0556-3	-4.70814773	40.41273328	Mapa	763	MDT5
05164000000	1051645	05468	05	Ávila	Navaquesera	16	920	17168	05164000101	Navaquesera	16	0555-2	-4.9087644	40.42502608	Mapa	1509	MDT5
05165000000	1051658	05471	05	Ávila	Navarredonda de Gredos	434	7881.1764	39024	05165000201	Navarredonda de Gredos	283	0555-3	-5.13611924	40.36211331	Mapa	1523	MDT5
05166000000	1051661	05474	05	Ávila	Navarredondilla	172	2026.9814	22511	05166000101	Navarredondilla	172	0556-1	-4.82124612	40.45356275	Mapa	1132	MDT5
05167000000	1051677	05477	05	Ávila	Navarrevisca	261	3999.368	28017	05167000101	Navarrevisca	261	0555-4	-4.89511844	40.36422772	Mapa	1129	MDT5
05168000000	1051683	05480	05	Ávila	Las Navas del Marqués	5119	9793.3893	42395	05168000301	Las Navas del Marqués	5041	0532-2	-4.32600955	40.60304637	Mapa	1296	MDT5
05169000000	1051696	05483	05	Ávila	Navatalgordo	233	2008.5562	20908	05169000201	Navatalgordo	226	0555-4	-4.86979955	40.41539353	Mapa	1262	MDT5
05170000000	1051700	05486	05	Ávila	Navatejares	55	1107.9833	13795	05170000301	Navatejares	46	0553-4	-5.53085021	40.33578195	Mapa	1043	MDT5
05171000000	1051717	05489	05	Ávila	Neila de San Miguel	65	789.1372	14021	05171000101	Neila de San Miguel	65	0553-2	-5.65100832	40.42461504	Mapa	1164	MDT5
05172000000	1051722	05492	05	Ávila	Niharra	180	1128.1793	23225	05172000101	Niharra	180	0531-1	-4.83946125	40.58858781	Mapa	1088	MDT5
05173000000	1051738	05495	05	Ávila	Ojos-Albos	82	4313.0356	35087	05173000101	Ojos-Albos	71	0507-3	-4.51642844	40.70646053	Mapa	1225	MDT5
05174000000	1051743	05498	05	Ávila	Orbita	75	1438.8495	21256	05174000101	Orbita	75	0481-2	-4.64724662	40.99838127	Mapa	865	MDT5
05175000000	1051756	05501	05	Ávila	El Oso	160	1848.8088	26569	05175000101	El Oso	160	0481-3	-4.77127014	40.84284248	Mapa	893	MDT5
05176000000	1051769	05504	05	Ávila	Padiernos	271	3699.0254	38768	05176000301	Padiernos	234	0531-1	-4.84478522	40.62193213	Mapa	1103	MDT5
05177000000	1051775	05507	05	Ávila	Pajares de Adaja	149	2323.7594	21699	05177000101	Pajares de Adaja	149	0481-2	-4.64035589	40.92369651	Mapa	878	MDT5
05178000000	1051781	05510	05	Ávila	Palacios de Goda	400	5298.5333	33503	05178000101	Palacios de Goda	314	0455-1	-4.7849894	41.11785196	Mapa	818	MDT5
05179000000	1051794	05513	05	Ávila	Papatrigo	226	2100.4559	27602	05179000101	Papatrigo	226	0481-3	-4.83148368	40.87015084	Mapa	889	MDT5
05180000000	1051808	05516	05	Ávila	El Parral	67	1088.7095	13644	05180000101	El Parral	67	0505-2	-4.99028495	40.79782671	Mapa	1049	MDT5
05181000000	1051815	05519	05	Ávila	Pascualcobo	45	1614.2258	24484	05181000101	Pascualcobo	45	0529-2	-5.27726468	40.6553393	Mapa	1069	MDT5
05182000000	1051820	05522	05	Ávila	Pedro Bernardo	817	6900.89	40519	05182000101	Pedro Bernardo	755	0578-4	-4.91435677	40.24318819	Mapa	801	MDT5
05183000000	1051836	05525	05	Ávila	Pedro-Rodríguez	134	1407.8845	16031	05183000101	Pedro-Rodríguez	134	0481-1	-4.78531524	40.93652348	Mapa	876	MDT5
05184000000	1051841	05528	05	Ávila	Peguerinos	272	8700.7218	49024	05184000201	Peguerinos	232	0532-2	-4.23331613	40.62652248	Mapa	1351	MDT5
05185000000	1051854	05531	05	Ávila	Peñalba de Ávila	102	2352.3484	35770	05185000101	Peñalba de Ávila	76	0506-1	-4.74734866	40.77199055	Mapa	1073	MDT5
05186000000	1051867	05534	05	Ávila	Piedrahíta	1822	2866.8134	30369	05186000501	Piedrahíta	1624	0554-2	-5.32791926	40.46377754	Mapa	1060	MDT5
05187000000	1051873	05537	05	Ávila	Piedralaves	2061	5525.0092	33421	05187000101	Piedralaves	2018	0579-1	-4.69830037	40.31768435	Mapa	717	MDT5
05188000000	1051889	05540	05	Ávila	Poveda	42	651.3811	12191	05188000101	Poveda	42	0530-3	-5.07967686	40.56628666	Mapa	1201	MDT5
05189000000	1051892	05543	05	Ávila	Poyales del Hoyo	453	337.8642	7110	05189000101	Poyales del Hoyo	432	0578-3	-5.16544718	40.1724327	Mapa	548	MDT5
05190000000	1051906	05546	05	Ávila	Pozanco	49	1106.7442	25775	05190000101	Pozanco	49	0506-2	-4.66945582	40.80000542	Mapa	915	MDT5
05191000000	1051913	05549	05	Ávila	Pradosegar	124	1129.0281	15211	05191000301	Pradosegar	102	0530-3	-5.07194337	40.54877889	Mapa	1178	MDT5
05192000000	1051928	05552	05	Ávila	Puerto Castilla	106	4327.8801	33757	05192000101	Puerto Castilla	73	0576-2	-5.62943843	40.28982213	Mapa	1168	MDT5
05193000000	1051934	05555	05	Ávila	Rasueros	182	4066.4687	34678	05193000101	Rasueros	166	0454-3	-5.0749183	41.02309217	Mapa	832	MDT5
05194000000	1051949	05558	05	Ávila	Riocabado	140	1977.4032	32336	05194000201	Riocabado	114	0506-1	-4.80605215	40.83337644	Mapa	906	MDT5
05195000000	1051952	05561	05	Ávila	Riofrío	215	6553.4351	45693	05195000301	Riofrío	150	0531-3	-4.7779986	40.54728355	Mapa	1182	MDT5
05196000000	1051965	05564	05	Ávila	Rivilla de Barajas	62	2438.4128	26251	05196000201	Rivilla de Barajas	62	0480-4	-4.98775612	40.90129693	Mapa	901	MDT5
05197000000	1051971	05567	05	Ávila	Salobral	113	755.0062	19040	05197000101	Salobral	112	0531-1	-4.81089062	40.6114066	Mapa	1084	MDT5
05198000000	1051987	05570	05	Ávila	Salvadiós	73	2038.3672	23788	05198000101	Salvadiós	73	0480-3	-5.09616762	40.87683079	Mapa	951	MDT5
05199000000	1051990	05573	05	Ávila	San Bartolomé de Béjar	37	1649.0265	20810	05199000101	San Bartolomé de Béjar	37	0553-4	-5.66269263	40.40828588	Mapa	1114	MDT5
05200000000	1052004	05576	05	Ávila	San Bartolomé de Corneja	46	736.1067	14047	05200000201	San Bartolomé de Corneja	26	0554-1	-5.3852527	40.49287529	Mapa	991	MDT5
05201000000	1052011	05579	05	Ávila	San Bartolomé de Pinares	541	7448.8741	61452	05201000101	San Bartolomé de Pinares	538	0531-4	-4.54007894	40.54318685	Mapa	1039	MDT5
05204000000	1052047	05636	05	Ávila	Sanchidrián	716	2659.7437	25496	05204000201	Sanchidrián	611	0481-4	-4.58156208	40.89198117	Mapa	922	MDT5
05205000000	1052050	05639	05	Ávila	Sanchorreja	84	3531.6316	34973	05205000101	Sanchorreja	84	0530-2	-4.91485123	40.6648407	Mapa	1310	MDT5
05206000000	1052063	05585	05	Ávila	San Esteban de los Patos	31	1035.952	18181	05206000101	San Esteban de los Patos	31	0506-4	-4.62473304	40.74608208	Mapa	1117	MDT5
05207000000	1052079	05591	05	Ávila	San Esteban del Valle	720	3934.7154	42126	05207000101	San Esteban del Valle	720	0578-2	-4.97954984	40.27571956	Mapa	806	MDT5
05208000000	1052085	05588	05	Ávila	San Esteban de Zapardiel	37	1298.5994	16075	05208000101	San Esteban de Zapardiel	37	0454-2	-4.90123587	41.09215849	Mapa	781	MDT5
05209000000	1052098	05594	05	Ávila	San García de Ingelmos	75	3808.1554	36212	05209000101	San García de Ingelmos	75	0505-1	-5.11618039	40.76993145	Mapa	1066	MDT5
05210000000	1052102	05600	05	Ávila	San Juan de la Encinilla	82	1737.8508	30933	05210000201	San Juan de la Encinilla	71	0506-1	-4.83969097	40.82881844	Mapa	910	MDT5
05211000000	1052119	05603	05	Ávila	San Juan de la Nava	468	6077.9838	45826	05211000101	San Juan de la Nava	463	0556-2	-4.68397122	40.47824649	Mapa	1117	MDT5
05212000000	1052124	05606	05	Ávila	San Juan del Molinillo	197	3578.6566	35110	05212000201	San Juan del Molinillo	45	0556-1	-4.81925634	40.45892707	Mapa	1140	MDT5
05213000000	1052130	05609	05	Ávila	San Juan del Olmo	97	3052.117	28609	05213000101	San Juan del Olmo	96	0530-1	-5.05025004	40.6531732	Mapa	1282	MDT5
05214000000	1052145	05612	05	Ávila	San Lorenzo de Tormes	31	1450.4979	18699	05214000101	San Lorenzo de Tormes	17	0554-3	-5.48740524	40.3707565	Mapa	1030	MDT5
05215000000	1052158	05615	05	Ávila	San Martín de la Vega del Alberche	168	5048.4686	29187	05215000101	San Martín de la Vega del Alberche	168	0555-1	-5.15637504	40.42971228	Mapa	1517	MDT5
05216000000	1052161	05618	05	Ávila	San Martín del Pimpollar	189	4564.4804	37958	05216000201	San Martín del Pimpollar	173	0555-3	-5.05612783	40.36843829	Mapa	1335	MDT5
05217000000	1052177	05621	05	Ávila	San Miguel de Corneja	57	683.6388	11878	05217000101	San Miguel de Corneja	57	0554-2	-5.28665207	40.48772442	Mapa	1059	MDT5
05218000000	1052183	05624	05	Ávila	San Miguel de Serrezuela	115	3475.2967	26678	05218000101	San Miguel de Serrezuela	115	0504-4	-5.28809206	40.6703663	Mapa	1097	MDT5
05219000000	1052196	05627	05	Ávila	San Pascual	44	1861.445	37137	05219000101	San Pascual	44	0481-3	-4.75662182	40.88239478	Mapa	881	MDT5
05220000000	1052200	05630	05	Ávila	San Pedro del Arroyo	431	1855.0768	34250	05220000201	San Pedro del Arroyo	402	0505-2	-4.86761787	40.80511148	Mapa	935	MDT5
05221000000	1052217	05645	05	Ávila	Santa Cruz del Valle	341	2962.3099	33679	05221000101	Santa Cruz del Valle	340	0578-4	-5.00337327	40.25084253	Mapa	724	MDT5
05222000000	1052222	05642	05	Ávila	Santa Cruz de Pinares	159	4136.9719	26798	05222000101	Santa Cruz de Pinares	153	0531-4	-4.57937886	40.54221491	Mapa	1010	MDT5
05224000000	1052243	05654	05	Ávila	Santa María del Arroyo	105	1113.3903	22034	05224000101	Santa María del Arroyo	105	0530-2	-4.92429815	40.60413154	Mapa	1152	MDT5
05225000000	1052256	05657	05	Ávila	Santa María del Berrocal	392	2834.4952	25978	05225000201	Santa María del Berrocal	374	0529-3	-5.40604773	40.50953207	Mapa	1048	MDT5
05226000000	1052269	05651	05	Ávila	Santa María de los Caballeros	66	2239.5953	22279	05226000501	Santa María de los Caballeros	9	0554-3	-5.45157451	40.38817734	Mapa	1037	MDT5
05227000000	1052275	05663	05	Ávila	Santa María del Tiétar	445	1197.87	15785	05227000101	Santa María del Tiétar	445	0579-2	-4.55499216	40.30401501	Mapa	697	MDT5
05228000000	1052281	05666	05	Ávila	Santiago del Collado	173	4268.6653	27347	05228000801	Santiago del Collado	10	0554-1	-5.35658286	40.43356101	Mapa	1224	MDT5
05229000000	1052294	05669	05	Ávila	Santo Domingo de las Posadas	86	1334.4333	29676	05229000101	Santo Domingo de las Posadas	86	0506-2	-4.63302434	40.81240832	Mapa	928	MDT5
05230000000	1052308	05672	05	Ávila	Santo Tomé de Zabarcos	65	841.5746	20756	05230000101	Santo Tomé de Zabarcos	65	0505-2	-4.91030758	40.78778403	Mapa	959	MDT5
05231000000	1052315	05633	05	Ávila	San Vicente de Arévalo	169	1611.6834	24975	05231000101	San Vicente de Arévalo	169	0481-1	-4.80063719	40.96798343	Mapa	877	MDT5
05232000000	1052320	05675	05	Ávila	La Serrada	117	725.32	17724	05232000101	La Serrada	115	0531-1	-4.79267984	40.63147261	Mapa	1106	MDT5
05233000000	1052336	05678	05	Ávila	Serranillos	247	1839.2392	24209	05233000101	Serranillos	247	0555-4	-4.91118838	40.33734323	Mapa	1220	MDT5
05234000000	1052341	05681	05	Ávila	Sigeres	46	1369.5113	23253	05234000101	Sigeres	46	0505-2	-4.93262663	40.79932062	Mapa	962	MDT5
05235000000	1052354	05684	05	Ávila	Sinlabajos	142	2007.0879	18784	05235000101	Sinlabajos	142	0455-3	-4.8319548	41.07717554	Mapa	827	MDT5
05236000000	1052367	05687	05	Ávila	Solana de Ávila	110	6836.6782	40083	05236000801	Solana de Ávila	39	0576-2	-5.61476569	40.3147188	Mapa	1148	MDT5
05237000000	1052373	05690	05	Ávila	Solana de Rioalmar	159	3713.9407	31440	05237000101	Solana de Rioalmar	159	0505-4	-5.01011096	40.73792327	Mapa	1120	MDT5
05238000000	1052389	05693	05	Ávila	Solosancho	827	5200.9886	49429	05238000301	Solosancho	422	0530-4	-4.90618079	40.55422071	Mapa	1118	MDT5
05239000000	1052392	05696	05	Ávila	Sotalbo	256	9045.9042	107615	05239000401	Sotalbo	167	0531-3	-4.85000498	40.54195506	Mapa	1155	MDT5
05240000000	1052406	05699	05	Ávila	Sotillo de la Adrada	4590	4319.96	36429	05240000201	Sotillo de la Adrada	4496	0579-2	-4.58061179	40.29254199	Mapa	635	MDT5
05241000000	1052413	05702	05	Ávila	El Tiemblo	4109	7558.5051	48370	05241000501	El Tiemblo	3818	0557-3	-4.50074945	40.41568332	Mapa	685	MDT5
05242000000	1052428	05705	05	Ávila	Tiñosillos	787	2725.3418	26895	05242000101	Tiñosillos	787	0481-1	-4.72846115	40.93452518	Mapa	867	MDT5
05243000000	1052434	05708	05	Ávila	Tolbaños	82	5201.0692	52926	05243000501	Tolbaños	22	0506-4	-4.58143919	40.75147571	Mapa	1139	MDT5
05244000000	1052449	05711	05	Ávila	Tormellas	40	922.3007	14442	05244000201	Tormellas	14	0577-1	-5.5096253	40.30493371	Mapa	1063	MDT5
05245000000	1052452	05714	05	Ávila	Tornadizos de Ávila	417	9547.0346	65668	05245000101	Tornadizos de Ávila	391	0531-2	-4.61427449	40.62636604	Mapa	1191	MDT5
05246000000	1052465	05720	05	Ávila	Tórtoles	51	2077.7882	28922	05246000101	Tórtoles	50	0529-4	-5.25924223	40.56176842	Mapa	1267	MDT5
05247000000	1052471	05717	05	Ávila	La Torre	239	5837.16	67480	05247000601	La Torre	90	0530-2	-4.96478322	40.58857728	Mapa	1129	MDT5
05249000000	1052490	05726	05	Ávila	Umbrías	99	1168.7048	13959	05249000601	Umbrías	37	0576-2	-5.579068	40.313466	Investigación	1095	Investigación
05251000000	1052510	05731	05	Ávila	Vadillo de la Sierra	60	4615.3446	29517	05251000101	Vadillo de la Sierra	60	0530-1	-5.12652621	40.60628434	Mapa	1349	MDT5
05252000000	1052525	05735	05	Ávila	Valdecasa	61	2179.12	29723	05252000201	Valdecasa	41	0530-2	-5.01157755	40.65918664	Mapa	1366	MDT5
05253000000	1052531	05738	05	Ávila	Vega de Santa María	83	1818.4063	23997	05253000101	Vega de Santa María	83	0481-4	-4.64251794	40.83583842	Mapa	941	MDT5
05254000000	1052546	05741	05	Ávila	Velayos	211	2044.6442	24030	05254000101	Velayos	206	0481-4	-4.62255309	40.8410303	Mapa	933	MDT5
05256000000	1052562	05747	05	Ávila	Villaflor	113	1848.3273	24241	05256000101	Villaflor	112	0505-2	-4.87376482	40.75894553	Mapa	977	MDT5
05257000000	1052578	05750	05	Ávila	Villafranca de la Sierra	134	3934.2355	52695	05257000201	Villafranca de la Sierra	133	0554-2	-5.22997426	40.49732636	Mapa	1105	MDT5
05258000000	1052584	05753	05	Ávila	Villanueva de Gómez	115	2109.7485	25370	05258000101	Villanueva de Gómez	115	0481-3	-4.71624255	40.88368722	Mapa	890	MDT5
05259000000	1052597	05756	05	Ávila	Villanueva del Aceral	118	1756.5194	17710	05259000101	Villanueva del Aceral	118	0454-4	-4.85302538	41.0416012	Mapa	843	MDT5
05260000000	1052601	05759	05	Ávila	Villanueva del Campillo	101	4598.7138	30110	05260000101	Villanueva del Campillo	101	0530-3	-5.17990231	40.57833664	Mapa	1450	MDT5
05261000000	1052618	05762	05	Ávila	Villar de Corneja	33	687.8411	12419	05261000101	Villar de Corneja	33	0554-1	-5.43253663	40.47509037	Mapa	997	MDT5
05262000000	1052623	05765	05	Ávila	Villarejo del Valle	347	4159.5825	30697	05262000101	Villarejo del Valle	347	0578-2	-4.99699805	40.28592335	Mapa	822	MDT5
05263000000	1052639	05768	05	Ávila	Villatoro	162	5602.1237	45688	05263000101	Villatoro	162	0530-3	-5.11094168	40.55534171	Mapa	1183	MDT5
05264000000	1052644	05771	05	Ávila	Viñegra de Moraña	57	1024.9075	15192	05264000101	Viñegra de Moraña	57	0480-4	-4.92016889	40.85154867	Mapa	906	MDT5
05265000000	1052657	05774	05	Ávila	Vita	84	1659.4889	19769	05265000101	Vita	84	0505-2	-5.00595457	40.81238203	Mapa	991	MDT5
05266000000	1052660	05777	05	Ávila	Zapardiel de la Cañada	94	4033.1291	29098	05266000101	Zapardiel de la Cañada	94	0529-2	-5.33983309	40.60595082	Mapa	1144	MDT5
05267000000	1052676	05780	05	Ávila	Zapardiel de la Ribera	116	4387.5516	37549	05267000201	Zapardiel de la Ribera	62	0554-4	-5.32785857	40.35469296	Mapa	1349	MDT5
05901000000	1059014	05597	05	Ávila	San Juan de Gredos	256	9590.9901	60562	05901000201	Navacepeda de Tormes	162	0554-4	-5.25149602	40.3605728	Mapa	1348	MDT5
05902000000	1059029	05660	05	Ávila	Santa María del Cubillo	317	6577.09	50789	05902000101	Aldeavieja	163	0507-3	-4.47277814	40.74221173	Mapa	1206	MDT5
05903000000	1059035	05190	05	Ávila	Diego del Carpio	139	3380.5228	28778	05903000201	Diego Álvaro	118	0529-2	-5.3260631	40.66481529	Mapa	1052	MDT5
05904000000	1059040	05667	05	Ávila	Santiago del Tormes	118	6845.0233	48646	05904000101	Aliseda de Tormes	58	0577-1	-5.39855186	40.33042306	Mapa	1125	MDT5
05905000000	1059053	05751	05	Ávila	Villanueva de Ávila	226	2120.413	22985	05905000101	Villanueva de Ávila	218	0556-3	-4.82250544	40.37877278	Mapa	1059	MDT5
06001000000	1060016	06005	06	Badajoz	Acedera	807	8246.9268	49336	06001000101	Acedera	131	0754-4	-5.57151763	39.07492505	Mapa	316	MDT5
06002000000	1060021	06010	06	Badajoz	Aceuchal	5449	6307.9443	39895	06002000101	Aceuchal	5426	0829-1	-6.48701436	38.64700914	Mapa	303	MDT5
06003000000	1060037	06015	06	Badajoz	Ahillones	871	2154.3478	24181	06003000101	Ahillones	871	0877-2	-5.86674807	38.26032661	Mapa	580	MDT5
06004000000	1060042	06020	06	Badajoz	Alange	1848	16027.8	85872	06004000101	Alange	1794	0803-2	-6.24722704	38.78524438	Mapa	322	MDT5
06005000000	1060055	06025	06	Badajoz	La Albuera	2028	2637.3951	25080	06005000101	La Albuera	1936	0802-3	-6.8226616	38.71641036	Mapa	251	MDT5
06006000000	1060068	06030	06	Badajoz	Alburquerque	5343	72322.7949	153521	06006000101	Alburquerque	5132	0727-4	-7.00101838	39.21986861	Mapa	430	MDT5
06007000000	1060074	06035	06	Badajoz	Alconchel	1680	29494.6072	111174	06007000101	Alconchel	1639	0827-3	-7.0713971	38.51593336	Mapa	277	MDT5
06008000000	1060080	06040	06	Badajoz	Alconera	744	3271.338	27843	06008000101	Alconera	720	0854-3	-6.47650617	38.3981974	Mapa	515	MDT5
06009000000	1060093	06045	06	Badajoz	Aljucén	264	1906.6614	16961	06009000101	Aljucén	254	0752-4	-6.33122406	39.04476158	Mapa	261	MDT5
06010000000	1060107	06050	06	Badajoz	Almendral	1232	6750.4685	37951	06010000101	Almendral	1211	0828-1	-6.82136683	38.61467816	Mapa	320	MDT5
06011000000	1060114	06055	06	Badajoz	Almendralejo	33474	16424.98	63627	06011000101	Almendralejo	32886	0803-3	-6.40778009	38.68445279	Mapa	337	MDT5
06012000000	1060129	06060	06	Badajoz	Arroyo de San Serván	4107	5012.4877	29274	06012000101	Arroyo de San Serván	4097	0777-3	-6.45460038	38.85331478	Mapa	225	MDT5
06013000000	1060135	06065	06	Badajoz	Atalaya	301	2267.8504	24563	06013000101	Atalaya	297	0876-1	-6.47356341	38.33308979	Mapa	502	MDT5
06014000000	1060140	06070	06	Badajoz	Azuaga	7853	49788.569	147142	06014000101	Azuaga	7682	0878-2	-5.67527592	38.2578584	Mapa	592	MDT5
06015000000	1060153	06001	06	Badajoz	Badajoz	150702	144037.4806	416717	06015000402	Badajoz	126583	0775-4	-6.97099704	38.87874339	Mapa	182	MDT5
06016000000	1060166	06075	06	Badajoz	Barcarrota	3510	13611.4918	60597	06016000101	Barcarrota	3455	0828-3	-6.84900488	38.51443528	Mapa	492	MDT5
06017000000	1060172	06080	06	Badajoz	Baterno	283	6210.1739	38095	06017000101	Baterno	283	0781-2	-4.9113809	38.95669787	Mapa	562	MDT5
06018000000	1060188	06085	06	Badajoz	Benquerencia de la Serena	829	10281.1504	69588	06018000101	Benquerencia de la Serena	281	0806-3	-5.49447757	38.70042909	Mapa	695	MDT5
06019000000	1060191	06090	06	Badajoz	Berlanga	2343	12779.0017	78282	06019000101	Berlanga	2328	0878-1	-5.82908706	38.28305387	Mapa	570	MDT5
06020000000	1060205	06095	06	Badajoz	Bienvenida	2087	9217.2229	48089	06020000101	Bienvenida	2069	0876-2	-6.21035226	38.29861964	Mapa	607	MDT5
06021000000	1060212	06100	06	Badajoz	Bodonal de la Sierra	1049	6836.8707	41377	06021000101	Bodonal de la Sierra	1048	0896-2	-6.55850635	38.14723868	Mapa	603	MDT5
06022000000	1060227	06105	06	Badajoz	Burguillos del Cerro	3057	18753.73	67219	06022000101	Burguillos del Cerro	3016	0853-4	-6.59168483	38.38138621	Mapa	406	MDT5
06023000000	1060233	06110	06	Badajoz	Cabeza del Buey	4864	47502.3398	116700	06023000201	Cabeza del Buey	4799	0806-4	-5.21891444	38.7214897	Mapa	531	MDT5
06024000000	1060248	06115	06	Badajoz	Cabeza la Vaca	1309	6400.241	45226	06024000101	Cabeza la Vaca	1283	0897-1	-6.42110316	38.0864699	Mapa	759	MDT5
06025000000	1060251	06120	06	Badajoz	Calamonte	6162	785.4803	14169	06025000101	Calamonte	6153	0777-3	-6.38613315	38.88893824	Mapa	227	MDT5
06026000000	1060264	06125	06	Badajoz	Calera de León	960	6838.2489	52314	06026000101	Calera de León	958	0897-2	-6.33785269	38.10610107	Mapa	710	MDT5
06027000000	1060270	06130	06	Badajoz	Calzadilla de los Barros	755	5223.4092	30824	06027000101	Calzadilla de los Barros	748	0876-2	-6.31714218	38.30038359	Mapa	561	MDT5
06028000000	1060286	06135	06	Badajoz	Campanario	4896	25732.1222	106734	06028000101	Campanario	4820	0779-4	-5.61778505	38.86338276	Mapa	396	MDT5
06029000000	1060299	06140	06	Badajoz	Campillo de Llerena	1360	23404.2159	90321	06029000101	Campillo de Llerena	1352	0831-3	-5.83144538	38.50201278	Mapa	487	MDT5
06030000000	1060303	06145	06	Badajoz	Capilla	182	14699.1449	53737	06030000101	Capilla	181	0807-1	-5.08452393	38.81944508	Mapa	496	MDT5
06031000000	1060310	06150	06	Badajoz	Carmonita	540	3922.03	34255	06031000101	Carmonita	524	0752-2	-6.33797825	39.15390858	Mapa	384	MDT5
06032000000	1060325	06155	06	Badajoz	El Carrascalejo	83	1276.5181	13802	06032000101	El Carrascalejo	75	0752-4	-6.33741854	39.02256965	Mapa	301	MDT5
06033000000	1060331	06160	06	Badajoz	Casas de Don Pedro	1439	14454.1	135816	06033000101	Casas de Don Pedro	1415	0755-2	-5.33066018	39.10397259	Mapa	366	MDT5
06034000000	1060346	06165	06	Badajoz	Casas de Reina	196	4979.5017	60048	06034000101	Casas de Reina	195	0877-4	-5.97031285	38.20316929	Mapa	630	MDT5
06035000000	1060359	06170	06	Badajoz	Castilblanco	951	13223.7259	55720	06035000101	Castilblanco	949	0733-1	-5.08950312	39.28494719	Mapa	503	MDT5
06036000000	1060362	06175	06	Badajoz	Castuera	5880	43203.7418	113238	06036000101	Castuera	5825	0805-4	-5.54521191	38.72139142	Mapa	509	MDT5
06037000000	1060378	06180	06	Badajoz	La Codosera	2075	6962.9197	33676	06037000201	La Codosera	1609	0727-3	-7.17363093	39.20595558	Mapa	336	MDT5
06038000000	1060384	06185	06	Badajoz	Cordobilla de Lácara	909	3686.58	29794	06038000101	Cordobilla de Lácara	899	0752-1	-6.43602265	39.14776685	Mapa	301	MDT5
06039000000	1060397	06190	06	Badajoz	La Coronada	2162	8116.5796	45149	06039000101	La Coronada	2153	0779-2	-5.67088279	38.92053331	Mapa	351	MDT5
06040000000	1060401	06195	06	Badajoz	Corte de Peleas	1222	4231.6124	34996	06040000101	Corte de Peleas	1214	0802-4	-6.67053644	38.72510832	Mapa	243	MDT5
06041000000	1060418	06200	06	Badajoz	Cristina	552	1580.9461	17751	06041000101	Cristina	552	0778-3	-6.09950867	38.83667712	Mapa	293	MDT5
06042000000	1060423	06205	06	Badajoz	Cheles	1176	4794.2474	29422	06042000101	Cheles	1158	0826-4	-7.27991871	38.51160599	Mapa	192	MDT5
06043000000	1060439	06210	06	Badajoz	Don Álvaro	788	3207.4985	27838	06043000101	Don Álvaro	658	0777-4	-6.27500576	38.84855612	Mapa	259	MDT5
06044000000	1060444	06215	06	Badajoz	Don Benito	37151	56169.2089	248829	06044000201	Don Benito	32507	0778-2	-5.86126299	38.95410117	Mapa	278	MDT5
06045000000	1060457	06220	06	Badajoz	Entrín Bajo	551	973.8574	15538	06045000201	Entrín Bajo	530	0802-3	-6.71439072	38.71905481	Mapa	241	MDT5
06046000000	1060460	06225	06	Badajoz	Esparragalejo	1462	1673.2	18584	06046000101	Esparragalejo	1431	0777-1	-6.43588312	38.94282883	Mapa	231	MDT5
06047000000	1060476	06230	06	Badajoz	Esparragosa de la Serena	1019	2169.8027	23592	06047000101	Esparragosa de la Serena	1018	0831-2	-5.60615289	38.64976324	Mapa	448	MDT5
06048000000	1060482	06235	06	Badajoz	Esparragosa de Lares	925	20860.577	78810	06048000101	Esparragosa de Lares	916	0780-2	-5.27081265	38.97455695	Mapa	458	MDT5
06049000000	1060495	06240	06	Badajoz	Feria	1144	7371.6971	46658	06049000101	Feria	1136	0828-4	-6.5641732	38.51193337	Mapa	550	MDT5
06050000000	1060508	06245	06	Badajoz	Fregenal de la Sierra	4847	23664.7142	110336	06050000201	Fregenal de la Sierra	4791	0875-4	-6.65364856	38.16988677	Mapa	572	MDT5
06051000000	1060515	06250	06	Badajoz	Fuenlabrada de los Montes	1845	19191.8888	76113	06051000101	Fuenlabrada de los Montes	1819	0756-2	-4.93448349	39.13206947	Mapa	539	MDT5
06052000000	1060520	06255	06	Badajoz	Fuente de Cantos	4721	25177.2325	82900	06052000101	Fuente de Cantos	4711	0876-4	-6.30921689	38.24660131	Mapa	582	MDT5
06053000000	1060536	06260	06	Badajoz	Fuente del Arco	688	11536.1135	84929	06053000201	Fuente del Arco	638	0898-2	-5.89717958	38.15182185	Mapa	698	MDT5
06054000000	1060541	06265	06	Badajoz	Fuente del Maestre	6743	17970.19	60848	06054000101	Fuente del Maestre	6710	0829-3	-6.44944794	38.52863453	Mapa	440	MDT5
06055000000	1060554	06270	06	Badajoz	Fuentes de León	2302	10985.7805	54576	06055000101	Fuentes de León	2285	0896-4	-6.5388528	38.06794873	Mapa	753	MDT5
06056000000	1060567	06275	06	Badajoz	Garbayuela	508	8414.1934	44102	06056000101	Garbayuela	506	0756-4	-4.99800972	39.049844	Mapa	488	MDT5
